Data Source,ID,Post link,Price,Address,Status,Area,Bedrooms,Bathrooms,Latitude,Longitude
https://www.realtor.com/,4621132764,https://www.realtor.com/realestateandhomes-detail/319-Green-Valley-Rd_Staten-Island_NY_10312_M46211-32764,669888.0,"319 Green Valley Rd, Staten Island, NY 10312",SOLD,1614.0,3.0,2,40.549982,-74.193644
https://www.realtor.com/,3436380921,https://www.realtor.com/realestateandhomes-detail/491-Doane-Ave_Staten-Island_NY_10308_M34363-80921,680000.0,"491 Doane Ave, Staten Island, NY 10308",SOLD,1439.0,3.0,3.5,40.562004,-74.157873
https://www.realtor.com/,3476436735,https://www.realtor.com/realestateandhomes-detail/274-Dixon-Ave_Staten-Island_NY_10303_M34764-36735,549999.0,"274 Dixon Ave, Staten Island, NY 10303",SOLD,1205.0,3.0,1.5,40.628432,-74.151338
https://www.realtor.com/,4915844983,https://www.realtor.com/realestateandhomes-detail/1327-84th-St_Brooklyn_NY_11228_M49158-44983,1369000.0,"1327 84th St, Brooklyn, NY 11228",SOLD,1920.0,3.0,2.5,40.614938,-74.011767
https://www.realtor.com/,4877937449,https://www.realtor.com/realestateandhomes-detail/132-Elm-St_Staten-Island_NY_10310_M48779-37449,559000.0,"132 Elm St, Staten Island, NY 10310",SOLD,1292.0,4.0,2,40.63851,-74.114339
https://www.realtor.com/,4568890835,https://www.realtor.com/realestateandhomes-detail/2173-Brown-St_Brooklyn_NY_11229_M45688-90835,880000.0,"2173 Brown St, Brooklyn, NY 11229",SOLD,1116.0,4.0,2.5,40.598891,-73.939342
https://www.realtor.com/,4395237841,https://www.realtor.com/realestateandhomes-detail/1445-E-69th-St_Brooklyn_NY_11234_M43952-37841,789000.0,"1445 E 69th St, Brooklyn, NY 11234",SOLD,1836.0,3.0,1,40.621332,-73.911186
https://www.realtor.com/,4136891435,https://www.realtor.com/realestateandhomes-detail/1273-E-10th-St_Brooklyn_NY_11230_M41368-91435,1500000.0,"1273 E 10th St, Brooklyn, NY 11230",SOLD,2015.0,4.0,1.5,40.618168,-73.964649
https://www.realtor.com/,4955847786,https://www.realtor.com/realestateandhomes-detail/1782-W-10th-St_Brooklyn_NY_11223_M49558-47786,800000.0,"1782 W 10th St, Brooklyn, NY 11223",SOLD,1400.0,3.0,3,40.60352,-73.982983
https://www.realtor.com/,4669261316,https://www.realtor.com/realestateandhomes-detail/1714-E-29th-St_Brooklyn_NY_11229_M46692-61316,1099000.0,"1714 E 29th St, Brooklyn, NY 11229",SOLD,1660.0,3.0,2.5,40.60929,-73.944877
https://www.realtor.com/,3507712857,https://www.realtor.com/realestateandhomes-detail/1534-E-22nd-St_Brooklyn_NY_11210_M35077-12857,1100000.0,"1534 E 22nd St, Brooklyn, NY 11210",SOLD,1400.0,5.0,1,40.614371,-73.95253
https://www.realtor.com/,3388329377,https://www.realtor.com/realestateandhomes-detail/8715-162nd-Ave_Howard-Beach_NY_11414_M33883-29377,1069000.0,"87-15 162nd Ave, Howard Beach, NY 11414",SOLD,2220.0,4.0,2.5,40.653665,-73.843734
https://www.realtor.com/,3879307467,https://www.realtor.com/realestateandhomes-detail/11723-224th-St_Cambria-Heights_NY_11411_M38793-07467,749000.0,"117-23 224th St, Cambria Heights, NY 11411",SOLD,1445.0,4.0,2,40.693271,-73.736726
https://www.realtor.com/,3465935962,https://www.realtor.com/realestateandhomes-detail/11125-177th-St_Jamaica_NY_11433_M34659-35962,535000.0,"111-25 177th St, Jamaica, NY 11433",SOLD,3800.0,3.0,1,40.696401,-73.775181
https://www.realtor.com/,4177376219,https://www.realtor.com/realestateandhomes-detail/123-Jansen-St_Staten-Island_NY_10312_M41773-76219,1829999.0,"123 Jansen St, Staten Island, NY 10312",SOLD,3970.0,5.0,2.5+,40.532643,-74.168978
https://www.realtor.com/,3401742487,https://www.realtor.com/realestateandhomes-detail/181-Meisner-Ave_Staten-Island_NY_10306_M34017-42487,1299900.0,"181 Meisner Ave, Staten Island, NY 10306",SOLD,2560.0,4.0,1.5+,40.579399,-74.132791
https://www.realtor.com/,4669403379,https://www.realtor.com/realestateandhomes-detail/2439-E-70th-St_Brooklyn_NY_11234_M46694-03379,989000.0,"2439 E 70th St, Brooklyn, NY 11234",SOLD,2172.0,3.0,2.5,40.613882,-73.901664
https://www.realtor.com/,4200886657,https://www.realtor.com/realestateandhomes-detail/29-Canterbury-Ave_Staten-Island_NY_10314_M42008-86657,749000.0,"29 Canterbury Ave, Staten Island, NY 10314",SOLD,1040.0,4.0,1,40.61653,-74.15065
https://www.realtor.com/,3143386482,https://www.realtor.com/realestateandhomes-detail/1928-Stuart-St_Brooklyn_NY_11229_M31433-86482,899000.0,"1928 Stuart St, Brooklyn, NY 11229",SOLD,1280.0,3.0,2,40.606423,-73.939311
https://www.realtor.com/,3320716882,https://www.realtor.com/realestateandhomes-detail/348-Clifton-Ave_Staten-Island_NY_10305_M33207-16882,695000.0,"348 Clifton Ave, Staten Island, NY 10305",SOLD,1092.0,3.0,2.5+,40.611006,-74.074086
https://www.realtor.com/,4352586863,https://www.realtor.com/realestateandhomes-detail/24-Peter-Ave_Staten-Island_NY_10306_M43525-86863,719900.0,"24 Peter Ave, Staten Island, NY 10306",SOLD,1152.0,3.0,1,40.566206,-74.123706
https://www.realtor.com/,3444021662,https://www.realtor.com/realestateandhomes-detail/531-Richard-Ave_Staten-Island_NY_10309_M34440-21662,1188000.0,"531 Richard Ave, Staten Island, NY 10309",SOLD,2700.0,4.0,2.5,40.505013,-74.223502
https://www.realtor.com/,3368852678,https://www.realtor.com/realestateandhomes-detail/3190-Avenue-W_Brooklyn_NY_11229_M33688-52678,579900.0,"3190 Avenue W, Brooklyn, NY 11229",SOLD,826.0,2.0,1,40.596854,-73.930539
https://www.realtor.com/,3138781249,https://www.realtor.com/realestateandhomes-detail/7622-14th-Ave_Brooklyn_NY_11228_M31387-81249,1718888.0,"7622 14th Ave, Bro, NY 11228",SOLD,2083.0,5.0,3,40.618074,-74.006574
https://www.realtor.com/,3071874514,https://www.realtor.com/realestateandhomes-detail/107-Fort-Hill-Cir_Staten-Island_NY_10301_M30718-74514,709000.0,"107 Fort Hill Cir, Staten Island, NY 10301",SOLD,1940.0,3.0,1.5,40.642046,-74.08133
https://www.realtor.com/,3268625239,https://www.realtor.com/realestateandhomes-detail/208-Mayfair-Dr-N_Brooklyn_NY_11234_M32686-25239,2399000.0,"208 Mayfair Dr N, Brooklyn, NY 11234",SOLD,3732.0,5.0,4.5,40.611527,-73.906178
https://www.realtor.com/,3799300637,https://www.realtor.com/realestateandhomes-detail/254-Dubois-Ave_Staten-Island_NY_10310_M37993-00637,638499.0,"254 Dubois Ave, Staten Island, NY 10310",SOLD,1600.0,3.0,1,40.6253,-74.128259
https://www.realtor.com/,3382516410,https://www.realtor.com/realestateandhomes-detail/155-Hooper-Ave_Staten-Island_NY_10306_M33825-16410,748000.0,"155 Hooper Ave, Staten Island, NY 10306",SOLD,1144.0,3.0,1.5,40.556032,-74.133591
https://www.realtor.com/,3465203239,https://www.realtor.com/realestateandhomes-detail/23-Jones-Pl_Staten-Island_NY_10310_M34652-03239,675998.0,"23 Jones Pl, Staten Island, NY 10310",SOLD,1563.0,3.0,1.5,40.628185,-74.110188
https://www.realtor.com/,3456075801,https://www.realtor.com/realestateandhomes-detail/14-Apricot-Ct_Staten-Island_NY_10309_M34560-75801,805000.0,"14 Apricot Ct, Staten Island, NY 10309",SOLD,1440.0,3.0,3.5,40.542468,-74.222583
https://www.realtor.com/,4949630824,https://www.realtor.com/realestateandhomes-detail/23-Randall-Ave_Staten-Island_NY_10301_M49496-30824,784900.0,"23 Randall Ave, Staten Island, NY 10301",SOLD,1995.0,4.0,1.5,40.633358,-74.098932
https://www.realtor.com/,4876045109,https://www.realtor.com/realestateandhomes-detail/109-Beacon-Ave_Staten-Island_NY_10306_M48760-45109,738000.0,"109 Beacon Ave, Staten Island, NY 10306",SOLD,1750.0,3.0,2,40.578368,-74.122119
https://www.realtor.com/,4672835851,https://www.realtor.com/realestateandhomes-detail/107-Saint-Marys-Ave_Staten-Island_NY_10305_M46728-35851,549900.0,"107 St Marys Ave, Staten Island, NY 10305",SOLD,1536.0,3.0,1.5,40.614946,-74.071282
https://www.realtor.com/,3308590929,https://www.realtor.com/realestateandhomes-detail/65-Kingsbridge-Ave_Staten-Island_NY_10314_M33085-90929,748888.0,"65 Kingsbridge Ave, Staten Island, NY 10314",SOLD,1326.0,3.0,2.5,40.616569,-74.165115
https://www.realtor.com/,9584066376,https://www.realtor.com/realestateandhomes-detail/61-Dimarco-Pl_Staten-Island_NY_10306_M95840-66376,1198700.0,"61 Dimarco Pl, Staten Island, NY 10306",SOLD,2500.0,4.0,3.5,40.577171,-74.126144
https://www.realtor.com/,3238402560,https://www.realtor.com/realestateandhomes-detail/2047-E-37th-St_Brooklyn_NY_11234_M32384-02560,829000.0,"2047 E 37th St, Brooklyn, NY 11234",SOLD,7819.0,3.0,1.5,40.609461,-73.929373
https://www.realtor.com/,3160079698,https://www.realtor.com/realestateandhomes-detail/2417-E-4th-St_Brooklyn_NY_11223_M31600-79698,999990.0,"2417 E 4th St, Brooklyn, NY 11223",SOLD,1597.0,3.0,2.5,40.591225,-73.96635
https://www.realtor.com/,4149040132,https://www.realtor.com/realestateandhomes-detail/1235-E-10th-St_Brooklyn_NY_11230_M41490-40132,1295000.0,"1235 E 10th St, Brooklyn, NY 11230",SOLD,1344.0,3.0,2.5,40.619007,-73.964809
https://www.realtor.com/,3683886790,https://www.realtor.com/realestateandhomes-detail/7809-220th-St_Oakland-Gardens_NY_11364_M36838-86790,1480000.0,"78-09 220th St, Oakland Gardens, NY 11364",SOLD,1950.0,4.0,3.5,40.736511,-73.752002
https://www.realtor.com/,3946669770,https://www.realtor.com/realestateandhomes-detail/11511-114th-Pl_South-Ozone-Park_NY_11420_M39466-69770,649888.0,"115-11 114th Pl, South Ozone Park, NY 11420",SOLD,1720.0,3.0,1.5,40.67641,-73.82361
https://www.realtor.com/,3462586950,https://www.realtor.com/realestateandhomes-detail/147-80th-St_Brooklyn_NY_11209_M34625-86950,2799000.0,"147 80th St, Brooklyn, NY 11209",SOLD,2644.0,5.0,4.5,40.62916,-74.033842
https://www.realtor.com/,3324203433,https://www.realtor.com/realestateandhomes-detail/157-Crystal-Ave_Staten-Island_NY_10302_M33242-03433,640000.0,"157 Crystal Ave, Staten Island, NY 10302",SOLD,1340.0,2.0,1.5,40.620209,-74.141569
https://www.realtor.com/,3819124192,https://www.realtor.com/realestateandhomes-detail/1634-Arden-Ave_Staten-Island_NY_10312_M38191-24192,899000.0,"1634 Arden Ave, Staten Island, NY 10312",SOLD,1666.0,3.0,2.5,40.531443,-74.163169
https://www.realtor.com/,3943433930,https://www.realtor.com/realestateandhomes-detail/44-Loring-Ave_Staten-Island_NY_10312_M39434-33930,708000.0,"44 Loring Ave, Staten Island, NY 10312",SOLD,1472.0,3.0,2,40.554389,-74.179844
https://www.realtor.com/,4583980545,https://www.realtor.com/realestateandhomes-detail/187-McVeigh-Ave_Staten-Island_NY_10314_M45839-80545,708000.0,"187 McVeigh Ave, Staten Island, NY 10314",SOLD,1536.0,3.0,1.5,40.590128,-74.155083
https://www.realtor.com/,4643715925,https://www.realtor.com/realestateandhomes-detail/453-Van-Name-Ave_Staten-Island_NY_10303_M46437-15925,670000.0,"453 Van Name Ave, Staten Island, NY 10303",SOLD,1068.0,3.0,2.5,40.62507,-74.154746
https://www.realtor.com/,3232524843,https://www.realtor.com/realestateandhomes-detail/151-Aspen-Knolls-Way_Staten-Island_NY_10312_M32325-24843,539000.0,"151 Aspen Knolls Way, Staten Island, NY 10312",SOLD,1679.0,4.0,2.5,40.562713,-74.183376
https://www.realtor.com/,4491685401,https://www.realtor.com/realestateandhomes-detail/329-Parkinson-Ave_Staten-Island_NY_10305_M44916-85401,499000.0,"329 Parkinson Ave, Staten Island, NY 10305",SOLD,1080.0,2.0,1.5,40.593617,-74.080581
https://www.realtor.com/,3336229664,https://www.realtor.com/realestateandhomes-detail/269-Van-Name-Ave_Staten-Island_NY_10303_M33362-29664,679000.0,"269 Van Name Ave, Staten Island, NY 10303",SOLD,1813.0,4.0,2.5,40.629246,-74.1535
https://www.realtor.com/,3471966044,https://www.realtor.com/realestateandhomes-detail/521-Midland-Ave_Staten-Island_NY_10306_M34719-66044,668000.0,"521 Midland Ave, Staten Island, NY 10306",SOLD,1260.0,3.0,2.5,40.573648,-74.094987
https://www.realtor.com/,3619818564,https://www.realtor.com/realestateandhomes-detail/55-Conrad-Ave_Staten-Island_NY_10314_M36198-18564,825000.0,"55 Conrad Ave, Staten Island, NY 10314",SOLD,1800.0,4.0,3.5,40.590216,-74.14725
https://www.realtor.com/,3210971677,https://www.realtor.com/realestateandhomes-detail/15-Alton-Pl_Brooklyn_NY_11210_M32109-71677,750000.0,"15 Alton Pl, Brooklyn, NY 11210",SOLD,1110.0,4.0,2,40.62414,-73.937659
https://www.realtor.com/,3432227954,https://www.realtor.com/realestateandhomes-detail/4334-Victory-Blvd_Staten-Island_NY_10314_M34322-27954,799000.0,"4334 Victory Blvd, Staten Island, NY 10314",SOLD,960.0,3.0,1,40.587987,-74.196325
https://www.realtor.com/,3678209069,https://www.realtor.com/realestateandhomes-detail/221-Midland-Ave_Staten-Island_NY_10306_M36782-09069,550000.0,"221 Midland Ave, Staten Island, NY 10306",SOLD,1200.0,3.0,2,40.578961,-74.103648
https://www.realtor.com/,4363325752,https://www.realtor.com/realestateandhomes-detail/370-Sharon-Ave_Staten-Island_NY_10301_M43633-25752,699999.0,"370 Sharon Ave, Staten Island, NY 10301",SOLD,1444.0,3.0,2.5,40.628695,-74.102522
https://www.realtor.com/,3313061620,https://www.realtor.com/realestateandhomes-detail/4569-166th-St_Flushing_NY_11358_M33130-61620,969000.0,"45-69 166th St, Flushing, NY 11358",SOLD,1240.0,3.0,1.5,40.754088,-73.800775
https://www.realtor.com/,3631495950,https://www.realtor.com/realestateandhomes-detail/8814-74th-Ave_Ridgewood_NY_11385_M36314-95950,865000.0,"88-14 74th Ave, Glendale, NY 11385",SOLD,1600.0,3.0,2.5,40.708387,-73.862453
https://www.realtor.com/,4717289748,https://www.realtor.com/realestateandhomes-detail/21303-33rd-Ave_Bayside_NY_11361_M47172-89748,1238000.0,"213-03 33rd Ave, Bayside, NY 11361",SOLD,1200.0,4.0,2,40.772171,-73.775232
https://www.realtor.com/,3873789662,https://www.realtor.com/realestateandhomes-detail/7114-Manse-St_Forest-Hills_NY_11375_M38737-89662,1150000.0,"71-14 Manse St, Forest Hills, NY 11375",SOLD,1400.0,3.0,2,40.711602,-73.84948
https://www.realtor.com/,4074279576,https://www.realtor.com/realestateandhomes-detail/2164-E-72nd-St_Brooklyn_NY_11234_M40742-79576,1099000.0,"2164 E 72nd St, Brooklyn, NY 11234",SOLD,2700.0,3.0,2.5,40.618993,-73.905648
https://www.realtor.com/,4798831849,https://www.realtor.com/realestateandhomes-detail/75-Dooley-St_Brooklyn_NY_11235_M47988-31849,699000.0,"75 Dooley St, Brooklyn, NY 11235",SOLD,1032.0,3.0,2,40.585439,-73.945595
https://www.realtor.com/,3864564675,https://www.realtor.com/realestateandhomes-detail/117-Leverett-Ave_Staten-Island_NY_10308_M38645-64675,715000.0,"117 Leverett Ave, Staten Island, NY 10308",SOLD,1360.0,3.0,1.5,40.55856,-74.149891
https://www.realtor.com/,4030848459,https://www.realtor.com/realestateandhomes-detail/196-Wieland-Ave_Staten-Island_NY_10309_M40308-48459,849999.0,"196 Wieland Ave, Staten Island, NY 10309",SOLD,1550.0,3.0,2.5,40.540178,-74.210602
https://www.realtor.com/,3932647626,https://www.realtor.com/realestateandhomes-detail/139-Ardsley-St_Staten-Island_NY_10306_M39326-47626,998000.0,"139 Ardsley St, Staten Island, NY 10306",SOLD,2688.0,3.0,2.5,40.571825,-74.135113
https://www.realtor.com/,4152301314,https://www.realtor.com/realestateandhomes-detail/106-Delaware-St_Staten-Island_NY_10304_M41523-01314,1099999.0,"106 Delaware St, Staten Island, NY 10304",SOLD,2000.0,3.0,3.5,40.595662,-74.103139
https://www.realtor.com/,3725090480,https://www.realtor.com/realestateandhomes-detail/281-Lamport-Blvd_Staten-Island_NY_10305_M37250-90480,625000.0,"281 Lamport Blvd, Staten Island, NY 10305",SOLD,1786.0,2.0,2.5,40.591929,-74.075159
https://www.realtor.com/,9962785537,https://www.realtor.com/realestateandhomes-detail/162A-Continental-Pl_Staten-Island_NY_10303_M99627-85537,458000.0,"162A Continental Pl, Staten Island, NY 10303",SOLD,1100.0,3.0,1.5,40.629967,-74.162033
https://www.realtor.com/,3950064119,https://www.realtor.com/realestateandhomes-detail/385-Stobe-Ave_Staten-Island_NY_10306_M39500-64119,679000.0,"385 Stobe Ave, Staten Island, NY 10306",SOLD,1600.0,3.0,1.5,40.579557,-74.093922
https://www.realtor.com/,4897785675,https://www.realtor.com/realestateandhomes-detail/249-Jerome-Ave_Staten-Island_NY_10305_M48977-85675,699999.0,"249 Jerome Ave, Staten Island, NY 10305",SOLD,1096.0,3.0,2,40.592425,-74.073394
https://www.realtor.com/,3948317481,https://www.realtor.com/realestateandhomes-detail/22-Vanessa-Ln_Staten-Island_NY_10312_M39483-17481,649000.0,"22 Vanessa Ln, Staten Island, NY 10312",SOLD,1382.0,3.0,2.5,40.541671,-74.169832
https://www.realtor.com/,3408338559,https://www.realtor.com/realestateandhomes-detail/47-Westport-St_Staten-Island_NY_10314_M34083-38559,555000.0,"47 Westport St, Staten Island, NY 10314",SOLD,1500.0,2.0,1.5,40.58374,-74.160053
https://www.realtor.com/,4582943396,https://www.realtor.com/realestateandhomes-detail/12-Nehring-Ave_Staten-Island_NY_10314_M45829-43396,749999.0,"12 Nehring Ave, Staten Island, NY 10314",SOLD,1768.0,3.0,1.5,40.591813,-74.15551
https://www.realtor.com/,4408182421,https://www.realtor.com/realestateandhomes-detail/1969-E-36th-St_Brooklyn_NY_11234_M44081-82421,699000.0,"1969 E 36th St, Brooklyn, NY 11234",SOLD,1064.0,3.0,1,40.610271,-73.931508
https://www.realtor.com/,3775105441,https://www.realtor.com/realestateandhomes-detail/1045-E-29th-St_Brooklyn_NY_11210_M37751-05441,1680000.0,"1045 E 29th St, Brooklyn, NY 11210",SOLD,1584.0,5.0,2.5,40.625593,-73.947368
https://www.realtor.com/,4454753629,https://www.realtor.com/realestateandhomes-detail/289-Netherland-Ave_Staten-Island_NY_10303_M44547-53629,425000.0,"289 Netherland Ave, Staten Island, NY 10303",SOLD,1102.0,3.0,1.5,40.628937,-74.158308
https://www.realtor.com/,3489959044,https://www.realtor.com/realestateandhomes-detail/10207-Avenue-M_Brooklyn_NY_11236_M34899-59044,649000.0,"10207 Avenue M, Brooklyn, NY 11236",SOLD,968.0,3.0,1.5,40.63989,-73.88957
https://www.realtor.com/,3664752395,https://www.realtor.com/realestateandhomes-detail/252-Beverly-Rd_Little-Neck_NY_11363_M36647-52395,1300000.0,"252 Beverly Rd, Douglaston, NY 11363",SOLD,2559.0,5.0,3,40.777083,-73.749657
https://www.realtor.com/,4067966041,https://www.realtor.com/realestateandhomes-detail/17039-Pidgeon-Meadow-Rd_Fresh-Meadows_NY_11365_M40679-66041,938000.0,"170-39 Pidgeon Meadow Rd, Fresh Meadows, NY 11365",SOLD,1350.0,2.0,1,40.748806,-73.795937
https://www.realtor.com/,4946127826,https://www.realtor.com/realestateandhomes-detail/55-Randall-Ave_Staten-Island_NY_10301_M49461-27826,749000.0,"55 Randall Ave, Staten Island, NY 10301",SOLD,1752.0,3.0,1.5,40.632517,-74.098783
https://www.realtor.com/,4892135284,https://www.realtor.com/realestateandhomes-detail/5000-Goodridge-Ave_Bronx_NY_10471_M48921-35284,3400000.0,"5000 Goodridge Ave, Bronx, NY 10471",SOLD,6290.0,6.0,6.5,40.896881,-73.903195
https://www.realtor.com/,4390333410,https://www.realtor.com/realestateandhomes-detail/419-Britton-Ave_Staten-Island_NY_10304_M43903-33410,599000.0,"419 Britton Ave, Staten Island, NY 10304",SOLD,1280.0,3.0,3,40.608635,-74.085887
https://www.realtor.com/,4370240770,https://www.realtor.com/realestateandhomes-detail/131-Vespa-Ave_Staten-Island_NY_10312_M43702-40770,769000.0,"131 Vespa Ave, Staten Island, NY 10312",SOLD,2052.0,3.0,2.5,40.548821,-74.192657
https://www.realtor.com/,3504645127,https://www.realtor.com/realestateandhomes-detail/101-Getz-Ave_Staten-Island_NY_10312_M35046-45127,718900.0,"101 Getz Ave, Staten Island, NY 10312",SOLD,2000.0,3.0,2.5,40.55783,-74.165999
https://www.realtor.com/,3169389886,https://www.realtor.com/realestateandhomes-detail/9511-Flatlands-Ave_Brooklyn_NY_11236_M31693-89886,739000.0,"9511 Flatlands Ave, Brooklyn, NY 11236",SOLD,1296.0,3.0,2,40.642951,-73.902232
https://www.realtor.com/,3367883763,https://www.realtor.com/realestateandhomes-detail/3122-Avenue-W_Brooklyn_NY_11229_M33678-83763,639000.0,"3122 Avenue W, Brooklyn, NY 11229",SOLD,1225.0,2.0,2,40.596578,-73.933036
https://www.realtor.com/,3853297062,https://www.realtor.com/realestateandhomes-detail/58-Elmwood-Ave_Staten-Island_NY_10308_M38532-97062,615000.0,"58 Elmwood Ave, Staten Island, NY 10308",SOLD,1110.0,3.0,1.5,40.542861,-74.154978
https://www.realtor.com/,4602562585,https://www.realtor.com/realestateandhomes-detail/35-Wavecrest-St_Staten-Island_NY_10306_M46025-62585,485000.0,"35 Wavecrest St, Staten Island, NY 10306",SOLD,1076.0,3.0,1,40.563761,-74.099782
https://www.realtor.com/,3757984079,https://www.realtor.com/realestateandhomes-detail/111-Dewey-Ave_Staten-Island_NY_10308_M37579-84079,679000.0,"111 Dewey Ave, Staten Island, NY 10308",SOLD,1269.0,3.0,2,40.556047,-74.147047
https://www.realtor.com/,4545841589,https://www.realtor.com/realestateandhomes-detail/449-E-34th-St_Brooklyn_NY_11203_M45458-41589,464900.0,"449 E 34th St, Brooklyn, NY 11203",SOLD,1328.0,3.0,1,40.645852,-73.944939
https://www.realtor.com/,3871019754,https://www.realtor.com/realestateandhomes-detail/186-Mackenzie-St_Brooklyn_NY_11235_M38710-19754,1088000.0,"186 Mackenzie St, Brooklyn, NY 11235",SOLD,1088.0,3.0,2,40.57877,-73.94018
https://www.realtor.com/,4566700520,https://www.realtor.com/realestateandhomes-detail/74-Holly-St_Staten-Island_NY_10304_M45667-00520,625000.0,"74 Holly St, Staten Island, NY 10304",SOLD,864.0,3.0,2,40.599372,-74.095431
https://www.realtor.com/,3299805613,https://www.realtor.com/realestateandhomes-detail/151-Bertha-Pl_Staten-Island_NY_10301_M32998-05613,2800000.0,"151 Bertha Pl, Staten Island, NY 10301",SOLD,4900.0,5.0,4.5+,40.622456,-74.092021
https://www.realtor.com/,4584854812,https://www.realtor.com/realestateandhomes-detail/15038-7th-Ave_Whitestone_NY_11357_M45848-54812,998000.0,"150-38 7th Ave, Whitestone, NY 11357",SOLD,1404.0,4.0,2,40.794837,-73.814668
https://www.realtor.com/,3320229276,https://www.realtor.com/realestateandhomes-detail/333-Howard-Ave_Staten-Island_NY_10301_M33202-29276,1499998.0,"333 Howard Ave, Staten Island, NY 10301",SOLD,3236.0,4.0,3,40.621655,-74.088343
https://www.realtor.com/,3137214306,https://www.realtor.com/realestateandhomes-detail/54-Schmidts-Ln_Staten-Island_NY_10314_M31372-14306,869000.0,"54 Schmidts Ln, Staten Island, NY 10314",SOLD,1628.0,3.0,2,40.609335,-74.114705
https://www.realtor.com/,4878250097,https://www.realtor.com/realestateandhomes-detail/1024-Sheldon-Ave_Staten-Island_NY_10309_M48782-50097,769900.0,"1024 Sheldon Ave, Staten Island, NY 10309",SOLD,1593.0,3.0,2.5,40.537391,-74.209727
https://www.realtor.com/,3793344384,https://www.realtor.com/realestateandhomes-detail/21-Kingsbridge-Ave_Staten-Island_NY_10314_M37933-44384,775000.0,"21 Kingsbridge Ave, Staten Island, NY 10314",SOLD,1296.0,3.0,2.5,40.617699,-74.164839
https://www.realtor.com/,3626672196,https://www.realtor.com/realestateandhomes-detail/40-Champlain-Ave_Staten-Island_NY_10306_M36266-72196,749000.0,"40 Champlain Ave, Staten Island, NY 10306",SOLD,1053.0,3.0,1.5,40.561799,-74.127485
https://www.realtor.com/,3261117268,https://www.realtor.com/realestateandhomes-detail/3144-Morley-Ave_Staten-Island_NY_10306_M32611-17268,899000.0,"3144 Morley Ave, Staten Island, NY 10306",SOLD,2860.0,4.0,2,40.575286,-74.126513
https://www.realtor.com/,3029388191,https://www.realtor.com/realestateandhomes-detail/600-Annadale-Rd_Staten-Island_NY_10312_M30293-88191,789888.0,"600 Annadale Rd, Staten Island, NY 10312",SOLD,1865.0,4.0,2.5,40.547696,-74.175296
https://www.realtor.com/,4114520802,https://www.realtor.com/realestateandhomes-detail/136-Ashworth-Ave_Staten-Island_NY_10314_M41145-20802,819000.0,"136 Ashworth Ave, Staten Island, NY 10314",SOLD,1574.0,3.0,3.5,40.590469,-74.147066
https://www.realtor.com/,3095298345,https://www.realtor.com/realestateandhomes-detail/418-Leverett-Ave_Staten-Island_NY_10308_M30952-98345,699999.0,"418 Leverett Ave, Staten Island, NY 10308",SOLD,1296.0,3.0,2.5,40.555708,-74.160062
https://www.realtor.com/,9014504734,https://www.realtor.com/realestateandhomes-detail/68-Appleby-Ave_Staten-Island_NY_10305_M90145-04734,758800.0,"68 Appleby Ave, Staten Island, NY 10305",SOLD,1633.0,3.0,1.5,40.59113,-74.079923
https://www.realtor.com/,4351361458,https://www.realtor.com/realestateandhomes-detail/38-Fillmore-St_Staten-Island_NY_10301_M43513-61458,539999.0,"38 Fillmore St, Staten Island, NY 10301",SOLD,1760.0,3.0,2.5,40.644834,-74.089851
https://www.realtor.com/,3356192133,https://www.realtor.com/realestateandhomes-detail/128-Barnard-Ave_Staten-Island_NY_10307_M33561-92133,638900.0,"128 Barnard Ave, Staten Island, NY 10307",SOLD,1280.0,2.0,2,40.51512,-74.243306
https://www.realtor.com/,3904207750,https://www.realtor.com/realestateandhomes-detail/34-Millstone-Ct_Staten-Island_NY_10314_M39042-07750,549999.0,"34 Millstone Ct, Staten Island, NY 10314",SOLD,1300.0,3.0,1.5,40.57584,-74.16388
https://www.realtor.com/,4969838962,https://www.realtor.com/realestateandhomes-detail/3098-Nostrand-Ave_Brooklyn_NY_11229_M49698-38962,758000.0,"3098 Nostrand Ave, Brooklyn, NY 11229",SOLD,1632.0,3.0,2,40.608708,-73.943785
https://www.realtor.com/,4713826309,https://www.realtor.com/realestateandhomes-detail/63-Beacon-Ct_Brooklyn_NY_11229_M47138-26309,588000.0,"63 Beacon Ct, Brooklyn, NY 11229",SOLD,918.0,2.0,1,40.588927,-73.922151
https://www.realtor.com/,4253132286,https://www.realtor.com/realestateandhomes-detail/12-Endor-Ave_Staten-Island_NY_10301_M42531-32286,888888.0,"12 Endor Ave, Staten Island, NY 10301",SOLD,2016.0,4.0,3,40.608125,-74.100889
https://www.realtor.com/,3115930378,https://www.realtor.com/realestateandhomes-detail/370-Green-Valley-Rd_Staten-Island_NY_10312_M31159-30378,799000.0,"370 Green Valley Rd, Staten Island, NY 10312",SOLD,1940.0,3.0,2.5,40.549534,-74.192622
https://www.realtor.com/,3907496814,https://www.realtor.com/realestateandhomes-detail/1907-Mermaid-Ave_Brooklyn_NY_11224_M39074-96814,575000.0,"1907 Mermaid Ave, Brooklyn, NY 11224",SOLD,2120.0,4.0,2,40.576703,-73.986206
https://www.realtor.com/,3533665361,https://www.realtor.com/realestateandhomes-detail/1135-Allerton-Ave_Bronx_NY_10469_M35336-65361,549777.0,"1135 Allerton Ave, Bronx, NY 10469",SOLD,2106.0,4.0,2.5,40.86568,-73.854261
https://www.realtor.com/,3602869408,https://www.realtor.com/realestateandhomes-detail/6206-80th-Rd_Ridgewood_NY_11385_M36028-69408,949000.0,"62-06 80th Rd, Glendale, NY 11385",SOLD,2100.0,3.0,2,40.694558,-73.891367
https://www.realtor.com/,3895227025,https://www.realtor.com/realestateandhomes-detail/506-College-Pl_College-Point_NY_11356_M38952-27025,699000.0,"5-06 College Pl, College Point, NY 11356",SOLD,1658.0,2.0,1,40.792456,-73.848545
https://www.realtor.com/,3613110389,https://www.realtor.com/realestateandhomes-detail/2707-Avenue-I_Brooklyn_NY_11210_M36131-10389,1595000.0,"2707 Avenue I, Brooklyn, NY 11210",SOLD,1796.0,7.0,4.5,40.629125,-73.949891
https://www.realtor.com/,3283423823,https://www.realtor.com/realestateandhomes-detail/2844-Jordan-St_Flushing_NY_11358_M32834-23823,998000.0,"28-44 Jordan St, Flushing, NY 11358",SOLD,1296.0,2.0,1.5,40.771061,-73.791356
https://www.realtor.com/,4418807739,https://www.realtor.com/realestateandhomes-detail/91-Kinghorn-St_Staten-Island_NY_10312_M44188-07739,1150000.0,"91 Kinghorn St, Staten Island, NY 10312",SOLD,3110.0,4.0,3.5,40.531979,-74.161163
https://www.realtor.com/,3638073648,https://www.realtor.com/realestateandhomes-detail/129-Sand-Ln_Staten-Island_NY_10305_M36380-73648,549000.0,"129 Sand Ln, Staten Island, NY 10305",SOLD,740.0,2.0,1,40.596434,-74.069942
https://www.realtor.com/,4232872208,https://www.realtor.com/realestateandhomes-detail/51-Wenlock-St_Staten-Island_NY_10303_M42328-72208,619000.0,"51 Wenlock St, Staten Island, NY 10303",SOLD,1080.0,3.0,2,40.627234,-74.150107
https://www.realtor.com/,3165806393,https://www.realtor.com/realestateandhomes-detail/84-Belwood-Loop_Staten-Island_NY_10307_M31658-06393,1199000.0,"84 Belwood Loop, Staten Island, NY 10307",SOLD,2016.0,3.0,2.5+,40.504801,-74.230744
https://www.realtor.com/,3250416867,https://www.realtor.com/realestateandhomes-detail/356-Gurley-Ave_Staten-Island_NY_10308_M32504-16867,749000.0,"356 Gurley Ave, Staten Island, NY 10308",SOLD,1560.0,3.0,2.5,40.560013,-74.160799
https://www.realtor.com/,3914812311,https://www.realtor.com/realestateandhomes-detail/901-E-18th-St_Brooklyn_NY_11230_M39148-12311,999000.0,"901 E 18th St, Brooklyn, NY 11230",SOLD,2580.0,4.0,1,40.62883,-73.958882
https://www.realtor.com/,3510688507,https://www.realtor.com/realestateandhomes-detail/359-Poillon-Ave_Staten-Island_NY_10312_M35106-88507,839999.0,"359 Poillon Ave, Staten Island, NY 10312",SOLD,1560.0,3.0,3.5,40.526517,-74.174374
https://www.realtor.com/,3580076470,https://www.realtor.com/realestateandhomes-detail/55-Hempstead-Ave_Staten-Island_NY_10306_M35800-76470,450000.0,"55 Hempstead Ave, Staten Island, NY 10306",SOLD,1235.0,2.0,2,40.572551,-74.091409
https://www.realtor.com/,3723463068,https://www.realtor.com/realestateandhomes-detail/1874-Strauss-St_Brooklyn_NY_11212_M37234-63068,550000.0,"1874 Strauss St, Brooklyn, NY 11212",SOLD,1640.0,4.0,2.5,40.668168,-73.916465
https://www.realtor.com/,3079078916,https://www.realtor.com/realestateandhomes-detail/2827-Jordan-St_Flushing_NY_11358_M30790-78916,989000.0,"28-27 Jordan St, Flushing, NY 11358",SOLD,1195.0,2.0,2,40.771562,-73.790953
https://www.realtor.com/,4250492549,https://www.realtor.com/realestateandhomes-detail/902-E-New-York-Ave_Brooklyn_NY_11203_M42504-92549,749000.0,"902 E New York Ave, Brooklyn, NY 11203",SOLD,1897.0,3.0,2.5,40.662449,-73.932809
https://www.realtor.com/,4801892181,https://www.realtor.com/realestateandhomes-detail/925-Rathbun-Ave_Staten-Island_NY_10309_M48018-92181,728888.0,"925 Rathbun Ave, Staten Island, NY 10309",SOLD,1008.0,2.0,2,40.53703,-74.206667
https://www.realtor.com/,4263679770,https://www.realtor.com/realestateandhomes-detail/167-Merrill-Ave_Staten-Island_NY_10314_M42636-79770,769800.0,"167 Merrill Ave, Staten Island, NY 10314",SOLD,2100.0,3.0,2,40.610991,-74.16635
https://www.realtor.com/,4934200645,https://www.realtor.com/realestateandhomes-detail/1940-E-35th-St_Brooklyn_NY_11234_M49342-00645,738000.0,"1940 E 35th St, Brooklyn, NY 11234",SOLD,980.0,2.0,2.5,40.609979,-73.933256
https://www.realtor.com/,3023384522,https://www.realtor.com/realestateandhomes-detail/60-Fieldway-Ave_Staten-Island_NY_10308_M30233-84522,725000.0,"60 Fieldway Ave, Staten Island, NY 10308",SOLD,1350.0,3.0,2,40.550831,-74.142942
https://www.realtor.com/,4756852178,https://www.realtor.com/realestateandhomes-detail/69-Sherman-Ave_Staten-Island_NY_10301_M47568-52178,519000.0,"69 Sherman Ave, Staten Island, NY 10301",SOLD,1650.0,4.0,2,40.639578,-74.080715
https://www.realtor.com/,4466352783,https://www.realtor.com/realestateandhomes-detail/56-4th-St_Staten-Island_NY_10306_M44663-52783,678888.0,"56 4th St, Staten Island, NY 10306",SOLD,992.0,3.0,2.5,40.573341,-74.118533
https://www.realtor.com/,4033217032,https://www.realtor.com/realestateandhomes-detail/145-Abingdon-Ave_Staten-Island_NY_10308_M40332-17032,799000.0,"145 Abingdon Ave, Staten Island, NY 10308",SOLD,1176.0,4.0,1.5,40.553173,-74.156963
https://www.realtor.com/,4553772387,https://www.realtor.com/realestateandhomes-detail/359-Peter-Ave_Staten-Island_NY_10306_M45537-72387,748800.0,"359 Peter Ave, Staten Island, NY 10306",SOLD,960.0,3.0,2,40.560799,-74.113895
https://www.realtor.com/,4893580921,https://www.realtor.com/realestateandhomes-detail/211-Alter-Ave_Staten-Island_NY_10305_M48935-80921,769000.0,"211 Alter Ave, Staten Island, NY 10305",SOLD,1120.0,3.0,2.5,40.590249,-74.093351
https://www.realtor.com/,3804903674,https://www.realtor.com/realestateandhomes-detail/4208-Sea-Gate-Ave_Brooklyn_NY_11224_M38049-03674,688000.0,"4208 Sea Gate Ave, Brooklyn, NY 11224",SOLD,1364.0,3.0,1.5,40.578274,-74.006143
https://www.realtor.com/,3411604051,https://www.realtor.com/realestateandhomes-detail/10206-163rd-Rd_Howard-Beach_NY_11414_M34116-04051,369000.0,"102-06 163rd Rd, Howard Beach, NY 11414",SOLD,750.0,2.0,1,40.652903,-73.82922
https://www.realtor.com/,3837156048,https://www.realtor.com/realestateandhomes-detail/924-Harding-Park_Bronx_NY_10473_M38371-56048,899000.0,"924 Harding Park, Bronx, NY 10473",SOLD,2842.0,5.0,3,40.806822,-73.855273
https://www.realtor.com/,3106974660,https://www.realtor.com/realestateandhomes-detail/14754-5th-Ave_Whitestone_NY_11357_M31069-74660,1100000.0,"147-54 5th Ave, Whitestone, NY 11357",SOLD,1190.0,3.0,2,40.795147,-73.820154
https://www.realtor.com/,4377339672,https://www.realtor.com/realestateandhomes-detail/4239-248th-St_Little-Neck_NY_11363_M43773-39672,669000.0,"42-39 248th St, Little Neck, NY 11363",SOLD,1080.0,3.0,1,40.769637,-73.740315
https://www.realtor.com/,4649478328,https://www.realtor.com/realestateandhomes-detail/82-Hart-Blvd_Staten-Island_NY_10301_M46494-78328,999800.0,"82 Hart Blvd, Staten Island, NY 10301",SOLD,2892.0,4.0,4.5,40.633489,-74.101199
https://www.realtor.com/,4282380976,https://www.realtor.com/realestateandhomes-detail/122-Tallman-St_Staten-Island_NY_10312_M42823-80976,1250000.0,"122 Tallman St, Staten Island, NY 10312",SOLD,2400.0,4.0,2.5+,40.534626,-74.170568
https://www.realtor.com/,4131670503,https://www.realtor.com/realestateandhomes-detail/247-Maryland-Ave_Staten-Island_NY_10305_M41316-70503,675000.0,"247 Maryland Ave, Staten Island, NY 10305",SOLD,1380.0,3.0,1.5,40.611541,-74.069852
https://www.realtor.com/,4650876061,https://www.realtor.com/realestateandhomes-detail/30-Adrienne-Pl_Staten-Island_NY_10308_M46508-76061,729999.0,"30 Adrienne Pl, Staten Island, NY 10308",SOLD,1206.0,3.0,2,40.550626,-74.147963
https://www.realtor.com/,3718943893,https://www.realtor.com/realestateandhomes-detail/1056-Arden-Ave_Staten-Island_NY_10312_M37189-43893,599999.0,"1056 Arden Ave, Staten Island, NY 10312",SOLD,980.0,3.0,1.5,40.543381,-74.174866
https://www.realtor.com/,4564760765,https://www.realtor.com/realestateandhomes-detail/106-Sparkill-Ave_Staten-Island_NY_10304_M45647-60765,799999.0,"106 Sparkill Ave, Staten Island, NY 10304",SOLD,1078.0,4.0,1.5,40.600237,-74.095215
https://www.realtor.com/,4379187745,https://www.realtor.com/realestateandhomes-detail/205-Egbert-Ave_Staten-Island_NY_10310_M43791-87745,599999.0,"205 Egbert Ave, Staten Island, NY 10310",SOLD,2040.0,3.0,1.5,40.62478,-74.130083
https://www.realtor.com/,3263039353,https://www.realtor.com/realestateandhomes-detail/19-Heusden-St_Staten-Island_NY_10303_M32630-39353,588000.0,"19 Heusden St, Staten Island, NY 10303",SOLD,1232.0,3.0,2,40.633843,-74.152955
https://www.realtor.com/,4290540138,https://www.realtor.com/realestateandhomes-detail/2955-Avenue-P_Brooklyn_NY_11229_M42905-40138,1100000.0,"2955 Avenue P, Brooklyn, NY 11229",SOLD,1800.0,4.0,1.5,40.613445,-73.943494
https://www.realtor.com/,4696550808,https://www.realtor.com/realestateandhomes-detail/81-Figurea-Ave_Staten-Island_NY_10312_M46965-50808,799999.0,"81 Figurea Ave, Staten Island, NY 10312",SOLD,1430.0,3.0,1.5,40.551123,-74.170729
https://www.realtor.com/,3948168478,https://www.realtor.com/realestateandhomes-detail/1027-E-31st-St_Brooklyn_NY_11210_M39481-68478,1375000.0,"1027 E 31st St, Brooklyn, NY 11210",SOLD,2000.0,4.0,2.5,40.626185,-73.945454
https://www.realtor.com/,4003479513,https://www.realtor.com/realestateandhomes-detail/51-Seafoam-St_Staten-Island_NY_10306_M40034-79513,279000.0,"51 Seafoam St, Staten Island, NY 10306",SOLD,608.0,1.0,1,40.563829,-74.098984
https://www.realtor.com/,3724958781,https://www.realtor.com/realestateandhomes-detail/726-Hemlock-St_Brooklyn_NY_11208_M37249-58781,615000.0,"726 Hemlock St, Brooklyn, NY 11208",SOLD,1440.0,3.0,1.5,40.671069,-73.868266
https://www.realtor.com/,3090715856,https://www.realtor.com/realestateandhomes-detail/117-Butler-Ave_Staten-Island_NY_10307_M30907-15856,549999.0,"117 Butler Ave, Staten Island, NY 10307",SOLD,1344.0,3.0,1.5+,40.511576,-74.250554
https://www.realtor.com/,4989183135,https://www.realtor.com/realestateandhomes-detail/1410-E-52nd-St_Brooklyn_NY_11234_M49891-83135,402000.0,"1410 E 52nd St, Brooklyn, NY 11234",SOLD,1495.0,4.0,2.5,40.625164,-73.925881
https://www.realtor.com/,4010679911,https://www.realtor.com/realestateandhomes-detail/6015-19th-Ave_Brooklyn_NY_11204_M40106-79911,1999999.0,"6015 19th Ave, Brooklyn, NY 11204",SOLD,2174.0,3.0,2,40.620173,-73.98523
https://www.realtor.com/,4562970777,https://www.realtor.com/realestateandhomes-detail/9409-Vanderveer-St_Queens-Village_NY_11428_M45629-70777,749000.0,"94-09 Vanderveer St, Queens Village, NY 11428",SOLD,1546.0,3.0,2,40.717895,-73.742056
https://www.realtor.com/,3491852240,https://www.realtor.com/realestateandhomes-detail/13540-116th-St_South-Ozone-Park_NY_11420_M34918-52240,549999.0,"135-40 116th St, South Ozone Park, NY 11420",SOLD,1360.0,4.0,1.5,40.669958,-73.824279
https://www.realtor.com/,4066105893,https://www.realtor.com/realestateandhomes-detail/4722-210th-St_Bayside_NY_11361_M40661-05893,889000.0,"47-22 210th St, Bayside, NY 11361",SOLD,1200.0,3.0,2.5,40.75525,-73.771808
https://www.realtor.com/,4755499935,https://www.realtor.com/realestateandhomes-detail/15123-24th-Ave_Whitestone_NY_11357_M47554-99935,1099000.0,"151-23 24th Ave, Whitestone, NY 11357",SOLD,1144.0,3.0,1.5,40.777159,-73.811625
https://www.realtor.com/,3523653234,https://www.realtor.com/realestateandhomes-detail/256-E-43rd-St_Brooklyn_NY_11203_M35236-53234,320000.0,"256 E 43rd St, Brooklyn, NY 11203",SOLD,1120.0,4.0,1,40.649395,-73.937106
https://www.realtor.com/,4544415487,https://www.realtor.com/realestateandhomes-detail/6-Sparkill-Ave_Staten-Island_NY_10304_M45444-15487,698000.0,"6 Sparkill Ave, Staten Island, NY 10304",SOLD,1200.0,2.0,2,40.599075,-74.091947
https://www.realtor.com/,3015431132,https://www.realtor.com/realestateandhomes-detail/14-E-9th-Rd_Far-Rockaway_NY_11693_M30154-31132,450000.0,"14 E 9th Rd, Broad Channel, NY 11693",SOLD,791.0,3.0,1,40.606266,-73.818883
https://www.realtor.com/,3023071873,https://www.realtor.com/realestateandhomes-detail/428-Loretto-St_Staten-Island_NY_10307_M30230-71873,2499900.0,"428 Loretto St, Staten Island, NY 10307",SOLD,4860.0,4.0,3.5+,40.499663,-74.238237
https://www.realtor.com/,4459355010,https://www.realtor.com/realestateandhomes-detail/25-Walnut-Ave_Staten-Island_NY_10308_M44593-55010,698888.0,"25 Walnut Ave, Staten Island, NY 10308",SOLD,1298.0,3.0,2.5,40.537673,-74.148608
https://www.realtor.com/,4507830481,https://www.realtor.com/realestateandhomes-detail/117-Ridgewood-Pl_Staten-Island_NY_10301_M45078-30481,699999.0,"117 Ridgewood Pl, Staten Island, NY 10301",SOLD,1813.0,4.0,1.5,40.632352,-74.097807
https://www.realtor.com/,4781977647,https://www.realtor.com/realestateandhomes-detail/7-Revere-Ln-Apt-D_Staten-Island_NY_10306_M47819-77647,475000.0,"7 Revere Ln Apt D, Staten Island, NY 10306",SOLD,1152.0,2.0,1.5,40.569833,-74.150026
https://www.realtor.com/,4446080111,https://www.realtor.com/realestateandhomes-detail/180-Kingsley-Ave_Staten-Island_NY_10314_M44460-80111,550000.0,"180 Kingsley Ave, Staten Island, NY 10314",SOLD,1300.0,3.0,1,40.621847,-74.127048
https://www.realtor.com/,4889931640,https://www.realtor.com/realestateandhomes-detail/62-Ambassador-Ln_Staten-Island_NY_10309_M48899-31640,699900.0,"62 Ambassador Ln, Staten Island, NY 10309",SOLD,2160.0,3.0,3.5,40.528663,-74.218789
https://www.realtor.com/,4010990448,https://www.realtor.com/realestateandhomes-detail/237-Freeborn-St-A_Staten-Island_NY_10306_M40109-90448,378888.0,"237 Freeborn St Unit A, Staten Island, NY 10306",SOLD,880.0,1.0,1,40.573877,-74.093419
https://www.realtor.com/,4355381105,https://www.realtor.com/realestateandhomes-detail/188-Seidman-Ave_Staten-Island_NY_10312_M43553-81105,749000.0,"188 Seidman Ave, Staten Island, NY 10312",SOLD,2150.0,3.0,1,40.535537,-74.165069
https://www.realtor.com/,3587242750,https://www.realtor.com/realestateandhomes-detail/1244A-77th-St_Brooklyn_NY_11228_M35872-42750,1088000.0,"1244A 77th St, Brooklyn, NY 11228",SOLD,1144.0,2.0,2,40.619605,-74.009865
https://www.realtor.com/,4283335216,https://www.realtor.com/realestateandhomes-detail/1455-E-15th-St_Brooklyn_NY_11230_M42833-35216,1029000.0,"1455 E 15th St, Brooklyn, NY 11230",SOLD,2200.0,6.0,2.5,40.614193,-73.959069
https://www.realtor.com/,3101406810,https://www.realtor.com/realestateandhomes-detail/292-Raritan-Ave_Staten-Island_NY_10305_M31014-06810,1399900.0,"292 Raritan Ave, Staten Island, NY 10305",SOLD,3149.0,4.0,4.5,40.59002,-74.090656
https://www.realtor.com/,4870923931,https://www.realtor.com/realestateandhomes-detail/18849-Quencer-Rd_Saint-Albans_NY_11412_M48709-23931,575000.0,"188-49 Quencer Rd, Saint Albans, NY 11412",SOLD,2088.0,3.0,1.5,40.695838,-73.764969
https://www.realtor.com/,4851832303,https://www.realtor.com/realestateandhomes-detail/7648-268th-St_New-Hyde-Park_NY_11040_M48518-32303,719000.0,"76-48 268th St, New Hyde Park, NY 11040",SOLD,1195.0,3.0,2,40.751075,-73.706877
https://www.realtor.com/,3595198922,https://www.realtor.com/realestateandhomes-detail/2819-211th-St_Bayside_NY_11360_M35951-98922,1599888.0,"28-19 211th St, Bayside, NY 11360",SOLD,1991.0,4.0,3,40.7757,-73.777813
https://www.realtor.com/,4614638891,https://www.realtor.com/realestateandhomes-detail/160-Bay-40th-St_Brooklyn_NY_11214_M46146-38891,999000.0,"160 Bay 40th St, Brooklyn, NY 11214",SOLD,1764.0,3.0,1,40.5945,-73.989914
https://www.realtor.com/,4948570931,https://www.realtor.com/realestateandhomes-detail/107-S-Railroad-St_Staten-Island_NY_10312_M49485-70931,799999.0,"107 S Railroad St, Staten Island, NY 10312",SOLD,2362.0,3.0,1.5,40.539598,-74.181047
https://www.realtor.com/,4499488504,https://www.realtor.com/realestateandhomes-detail/263-Getz-Ave_Staten-Island_NY_10312_M44994-88504,825000.0,"263 Getz Ave, Staten Island, NY 10312",SOLD,2230.0,4.0,2,40.55327,-74.164978
https://www.realtor.com/,4024372256,https://www.realtor.com/realestateandhomes-detail/8107-12th-Ave_Brooklyn_NY_11228_M40243-72256,1220000.0,"8107 12th Ave, Brooklyn, NY 11228",SOLD,1408.0,3.0,2,40.617867,-74.013135
https://www.realtor.com/,3811230813,https://www.realtor.com/realestateandhomes-detail/115-Bement-Ct_Staten-Island_NY_10310_M38112-30813,499000.0,"115 Bement Ct, Staten Island, NY 10310",SOLD,1200.0,2.0,2,40.640192,-74.111764
https://www.realtor.com/,3084011319,https://www.realtor.com/realestateandhomes-detail/4827-206th-St_Oakland-Gardens_NY_11364_M30840-11319,988000.0,"4827 206th St, Oakland Gardens, NY 11364",SOLD,2500.0,4.0,2.5,40.752848,-73.773813
https://www.realtor.com/,4345630574,https://www.realtor.com/realestateandhomes-detail/327-Avenue-P_Brooklyn_NY_11204_M43456-30574,1150000.0,"327 Avenue P, Brooklyn, NY 11204",SOLD,1280.0,3.0,2,40.608802,-73.975607
https://www.realtor.com/,3685864881,https://www.realtor.com/realestateandhomes-detail/1914-E-26th-St_Brooklyn_NY_11229_M36858-64881,1690000.0,"1914 E 26th St, Brooklyn, NY 11229",SOLD,1536.0,3.0,2.5,40.604208,-73.946756
https://www.realtor.com/,3355278705,https://www.realtor.com/realestateandhomes-detail/2846-Brighton-4th-St_Brooklyn_NY_11235_M33552-78705,249900.0,"2846 Brighton 4th St, Brooklyn, NY 11235",SOLD,810.0,2.0,1,40.581795,-73.964653
https://www.realtor.com/,3683507680,https://www.realtor.com/realestateandhomes-detail/1920-E-27th-St_Brooklyn_NY_11229_M36835-07680,1125000.0,"1920 E 27th St, Brooklyn, NY 11229",SOLD,1162.0,3.0,2,40.604155,-73.945797
https://www.realtor.com/,3691163095,https://www.realtor.com/realestateandhomes-detail/258-Union-Ave_Staten-Island_NY_10303_M36911-63095,320000.0,"258 Union Ave, Staten Island, NY 10303",SOLD,1232.0,3.0,1.5,40.630135,-74.158284
https://www.realtor.com/,4497011282,https://www.realtor.com/realestateandhomes-detail/206-Robinson-Ave_Staten-Island_NY_10312_M44970-11282,670000.0,"206 Robinson Ave, Staten Island, NY 10312",SOLD,1230.0,3.0,1.5,40.538991,-74.153386
https://www.realtor.com/,3277588814,https://www.realtor.com/realestateandhomes-detail/496-Liberty-Ave_Staten-Island_NY_10305_M32775-88814,688000.0,"496 Liberty Ave, Staten Island, NY 10305",SOLD,1825.0,3.0,2,40.58238,-74.086342
https://www.realtor.com/,3780850847,https://www.realtor.com/realestateandhomes-detail/81-Park-Hill-Ct_Staten-Island_NY_10304_M37808-50847,499000.0,"81 Park Hill Ct, Staten Island, NY 10304",SOLD,1786.0,3.0,2,40.617871,-74.075845
https://www.realtor.com/,3860677644,https://www.realtor.com/realestateandhomes-detail/16-E-Augusta-Ave_Staten-Island_NY_10308_M38606-77644,629000.0,"16 E Augusta Ave, Staten Island, NY 10308",SOLD,1332.0,3.0,1.5+,40.553078,-74.157828
https://www.realtor.com/,4067348967,https://www.realtor.com/realestateandhomes-detail/5019-216th-St_Oakland-Gardens_NY_11364_M40673-48967,988000.0,"50-19 216th St, Bayside, NY 11364",SOLD,1423.0,2.0,1.5+,40.754023,-73.763738
https://www.realtor.com/,3813413760,https://www.realtor.com/realestateandhomes-detail/8782-112th-St_Richmond-Hill_NY_11418_M38134-13760,738000.0,"87-82 112th St, Richmond Hill, NY 11418",SOLD,1850.0,4.0,2.5,40.695178,-73.835585
https://www.realtor.com/,3998121227,https://www.realtor.com/realestateandhomes-detail/183-Nixon-Ave_Staten-Island_NY_10304_M39981-21227,925000.0,"183 Nixon Ave, Staten Island, NY 10304",SOLD,1680.0,3.0,2.5,40.633177,-74.082372
https://www.realtor.com/,4645516063,https://www.realtor.com/realestateandhomes-detail/25-Laurie-Ct_Staten-Island_NY_10304_M46455-16063,2388888.0,"25 Laurie Ct, Staten Island, NY 10304",SOLD,2880.0,4.0,3.5,40.597394,-74.103376
https://www.realtor.com/,3704945747,https://www.realtor.com/realestateandhomes-detail/11-Monaco-Pl_Brooklyn_NY_11233_M37049-45747,1200000.0,"11 Monaco Pl, Brooklyn, NY 11233",SOLD,1782.0,4.0,3.5,40.676972,-73.90874
https://www.realtor.com/,3179537595,https://www.realtor.com/realestateandhomes-detail/1380-E-55th-St_Brooklyn_NY_11234_M31795-37595,659000.0,"1380 E 55th St, Brooklyn, NY 11234",SOLD,1008.0,3.0,2.5,40.622964,-73.922759
https://www.realtor.com/,3003593158,https://www.realtor.com/realestateandhomes-detail/305-Monahan-Ave_Staten-Island_NY_10314_M30035-93158,679000.0,"305 Monahan Ave, Staten Island, NY 10314",SOLD,1470.0,3.0,2.5,40.591834,-74.155011
https://www.realtor.com/,3388158639,https://www.realtor.com/realestateandhomes-detail/769-Vermont-St_Brooklyn_NY_11207_M33881-58639,625000.0,"769 Vermont St, Brooklyn, NY 11207",SOLD,1400.0,4.0,2,40.660881,-73.889876
https://www.realtor.com/,4773518828,https://www.realtor.com/realestateandhomes-detail/25-89th-St_Brooklyn_NY_11209_M47735-18828,1150000.0,"25 89th St, Brooklyn, NY 11209",SOLD,1184.0,3.0,2,40.62341,-74.039578
https://www.realtor.com/,4960682362,https://www.realtor.com/realestateandhomes-detail/310-Jefferson-Blvd_Staten-Island_NY_10312_M49606-82362,1099000.0,"310 Jefferson Blvd, Staten Island, NY 10312",SOLD,3500.0,5.0,3.5,40.545752,-74.184713
https://www.realtor.com/,3197836701,https://www.realtor.com/realestateandhomes-detail/153-Moreland-St_Staten-Island_NY_10306_M31978-36701,699000.0,"153 Moreland Ave, Staten Island, NY 10306",SOLD,1716.0,3.0,1.5,40.575953,-74.095896
https://www.realtor.com/,3516420645,https://www.realtor.com/realestateandhomes-detail/3352-75th-St_Jackson-Heights_NY_11372_M35164-20645,1275000.0,"33-52 75th St, Jackson Heights, NY 11372",SOLD,1360.0,3.0,2,40.753334,-73.891881
https://www.realtor.com/,4671004592,https://www.realtor.com/realestateandhomes-detail/605-E-57th-St_Brooklyn_NY_11234_M46710-04592,698000.0,"605 E 57th St, Brooklyn, NY 11234",SOLD,1800.0,3.0,2.5,40.638113,-73.921839
https://www.realtor.com/,4839757008,https://www.realtor.com/realestateandhomes-detail/11745-127th-St_South-Ozone-Park_NY_11420_M48397-57008,749000.0,"117-45 127th St, South Ozone Park, NY 11420",SOLD,1000.0,3.0,2,40.674128,-73.810758
https://www.realtor.com/,3660829841,https://www.realtor.com/realestateandhomes-detail/393-Guyon-Ave_Staten-Island_NY_10306_M36608-29841,835000.0,"393 Guyon Ave, Staten Island, NY 10306",SOLD,2050.0,5.0,2.5,40.558306,-74.11596
https://www.realtor.com/,3362172474,https://www.realtor.com/realestateandhomes-detail/89-Glover-St-B_Staten-Island_NY_10308_M33621-72474,869000.0,"89 Glover St Unit B, Staten Island, NY 10308",SOLD,1920.0,4.0,2.5+,40.537639,-74.14574
https://www.realtor.com/,4810014231,https://www.realtor.com/realestateandhomes-detail/36-Hickory-Cir_Staten-Island_NY_10312_M48100-14231,529000.0,"36 Hickory Cir, Staten Island, NY 10312",SOLD,1840.0,3.0,1.5,40.550653,-74.191594
https://www.realtor.com/,4313264293,https://www.realtor.com/realestateandhomes-detail/439-Woolley-Ave_Staten-Island_NY_10314_M43132-64293,629900.0,"439 Woolley Ave, Staten Island, NY 10314",SOLD,1148.0,3.0,1.5,40.612955,-74.140465
https://www.realtor.com/,3211129821,https://www.realtor.com/realestateandhomes-detail/9111-161st-Ave_Howard-Beach_NY_11414_M32111-29821,1039000.0,"91-11 161st Ave, Howard Beach, NY 11414",SOLD,2366.0,4.0,3,40.655845,-73.840553
https://www.realtor.com/,3705706962,https://www.realtor.com/realestateandhomes-detail/11430-202nd-St_Saint-Albans_NY_11412_M37057-06962,630000.0,"114-30 202nd St, Saint Albans, NY 11412",SOLD,2000.0,3.0,2,40.699531,-73.752766
https://www.realtor.com/,3013070079,https://www.realtor.com/realestateandhomes-detail/23-Lexington-Ave_Staten-Island_NY_10302_M30130-70079,535000.0,"23 Lexington Ave, Staten Island, NY 10302",SOLD,1408.0,3.0,2.5,40.630382,-74.132705
https://www.realtor.com/,3116836133,https://www.realtor.com/realestateandhomes-detail/998-Arthur-Kill-Rd_Staten-Island_NY_10312_M31168-36133,888000.0,"998 Arthur Kill Rd, Staten Island, NY 10312",SOLD,2288.0,4.0,4,40.562377,-74.174502
https://www.realtor.com/,4161290630,https://www.realtor.com/realestateandhomes-detail/56-Ocean-Ter_Staten-Island_NY_10314_M41612-90630,1388888.0,"56 Ocean Ter, Staten Island, NY 10314",SOLD,3290.0,4.0,4.5,40.601624,-74.118331
https://www.realtor.com/,4713933184,https://www.realtor.com/realestateandhomes-detail/316-Brehaut-Ave_Staten-Island_NY_10307_M47139-33184,1075000.0,"316 Brehaut Ave, Staten Island, NY 10307",SOLD,2700.0,3.0,2.5,40.511643,-74.238947
https://www.realtor.com/,4467524475,https://www.realtor.com/realestateandhomes-detail/579-Klondike-Ave_Staten-Island_NY_10314_M44675-24475,848000.0,"579 Klondike Ave, Staten Island, NY 10314",SOLD,2376.0,4.0,1.5,40.588257,-74.155279
https://www.realtor.com/,4920961789,https://www.realtor.com/realestateandhomes-detail/2125-Hendrickson-St_Brooklyn_NY_11234_M49209-61789,738000.0,"2125 Hendrickson St, Brooklyn, NY 11234",SOLD,1125.0,3.0,1,40.610523,-73.924426
https://www.realtor.com/,4702998519,https://www.realtor.com/realestateandhomes-detail/2965-Amboy-Rd_Staten-Island_NY_10306_M47029-98519,759888.0,"2965 Amboy Rd, Staten Island, NY 10306",SOLD,1250.0,3.0,1.5,40.566486,-74.128681
https://www.realtor.com/,3068459345,https://www.realtor.com/realestateandhomes-detail/287-Taylor-St_Staten-Island_NY_10310_M30684-59345,650000.0,"287 Taylor St, Staten Island, NY 10310",SOLD,1260.0,3.0,2.5,40.631499,-74.122534
https://www.realtor.com/,3353587369,https://www.realtor.com/realestateandhomes-detail/173-Miles-Ave_Staten-Island_NY_10308_M33535-87369,680000.0,"173 Miles Ave, Staten Island, NY 10308",SOLD,1260.0,3.0,2,40.556272,-74.149425
https://www.realtor.com/,3165252816,https://www.realtor.com/realestateandhomes-detail/36-Shale-St_Staten-Island_NY_10314_M31652-52816,599000.0,"36 Shale St, Staten Island, NY 10314",SOLD,1547.0,3.0,1.5,40.584308,-74.150715
https://www.realtor.com/,4649964008,https://www.realtor.com/realestateandhomes-detail/68-Watchogue-Rd_Staten-Island_NY_10314_M46499-64008,594999.0,"68 Watchogue Rd, Staten Island, NY 10314",SOLD,1360.0,3.0,2.5,40.613911,-74.133028
https://www.realtor.com/,4111495258,https://www.realtor.com/realestateandhomes-detail/12-Pyramid-Ct_Staten-Island_NY_10314_M41114-95258,699999.0,"12 Pyramid Ct, Staten Island, NY 10314",SOLD,1445.0,3.0,2.5,40.616453,-74.168518
https://www.realtor.com/,4537780926,https://www.realtor.com/realestateandhomes-detail/181-Boyd-St_Staten-Island_NY_10304_M45377-80926,359000.0,"181 Boyd St, Staten Island, NY 10304",SOLD,920.0,2.0,1,40.625671,-74.081321
https://www.realtor.com/,4466087550,https://www.realtor.com/realestateandhomes-detail/399-Armstrong-Ave_Staten-Island_NY_10308_M44660-87550,549900.0,"399 Armstrong Ave, Staten Island, NY 10308",SOLD,1245.0,3.0,1.5,40.543312,-74.155844
https://www.realtor.com/,4580427533,https://www.realtor.com/realestateandhomes-detail/1440-E-63rd-St_Brooklyn_NY_11234_M45804-27533,655000.0,"1440 E 63rd St, Brooklyn, NY 11234",SOLD,1190.0,3.0,1,40.61862,-73.916495
https://www.realtor.com/,3155641352,https://www.realtor.com/realestateandhomes-detail/321-Nelson-Ave_Staten-Island_NY_10308_M31556-41352,748000.0,"321 Nelson Ave, Staten Island, NY 10308",SOLD,2200.0,6.0,3,40.542012,-74.14506
https://www.realtor.com/,3167612493,https://www.realtor.com/realestateandhomes-detail/1358-E-56th-St_Brooklyn_NY_11234_M31676-12493,649000.0,"1358 E 56th St, Brooklyn, NY 11234",SOLD,1260.0,3.0,2,40.622529,-73.921767
https://www.realtor.com/,4427546189,https://www.realtor.com/realestateandhomes-detail/1625-E-54th-St_Brooklyn_NY_11234_M44275-46189,745000.0,"1625 E 54th St, Old Mill Basin, NY 11234",SOLD,1300.0,3.0,2,40.617914,-73.92258
https://www.realtor.com/,4209982421,https://www.realtor.com/realestateandhomes-detail/8762-188th-St_Hollis_NY_11423_M42099-82421,850000.0,"87-62 188th St, Hollis, NY 11432",SOLD,1800.0,4.0,3.5,40.716072,-73.774335
https://www.realtor.com/,4203064682,https://www.realtor.com/realestateandhomes-detail/269-Ashland-Ave_Staten-Island_NY_10309_M42030-64682,1349900.0,"269 Ashland Ave, Staten Island, NY 10309",SOLD,2800.0,3.0,4.5,40.530947,-74.201249
https://www.realtor.com/,3337247002,https://www.realtor.com/realestateandhomes-detail/31-Ramble-Rd_Staten-Island_NY_10308_M33372-47002,799000.0,"31 Ramble Rd, Staten Island, NY 10308",SOLD,3036.0,3.0,2.5,40.550572,-74.146929
https://www.realtor.com/,3424920528,https://www.realtor.com/realestateandhomes-detail/7914-11th-Ave_Brooklyn_NY_11228_M34249-20528,1388000.0,"7914 11th Ave, Brooklyn, NY 11228",SOLD,1760.0,3.0,1,40.620535,-74.014768
https://www.realtor.com/,4235646335,https://www.realtor.com/realestateandhomes-detail/8-Allison-Ave_Staten-Island_NY_10306_M42356-46335,1320000.0,"8 Allison Ave, Staten Island, NY 10306",SOLD,2733.0,3.0,2.5,40.570145,-74.120762
https://www.realtor.com/,3997983047,https://www.realtor.com/realestateandhomes-detail/161-Rome-Ave_Staten-Island_NY_10304_M39979-83047,1099000.0,"161 Rome Ave, Staten Island, NY 10304",SOLD,2452.0,3.0,3.5,40.602167,-74.095073
https://www.realtor.com/,4818870441,https://www.realtor.com/realestateandhomes-detail/1761-Tenbroeck-Ave_Bronx_NY_10461_M48188-70441,660000.0,"1761 Tenbroeck Ave, Bronx, NY 10461",SOLD,1260.0,3.0,1.5+,40.851457,-73.849196
https://www.realtor.com/,4516896621,https://www.realtor.com/realestateandhomes-detail/2221-Royce-St_Brooklyn_NY_11234_M45168-96621,899000.0,"2221 Royce St, Brooklyn, NY 11234",SOLD,1875.0,4.0,2,40.619766,-73.901984
https://www.realtor.com/,3702511018,https://www.realtor.com/realestateandhomes-detail/2845-200th-St_Bayside_NY_11360_M37025-11018,900000.0,"28-45 200th St, Bayside, NY 11360",SOLD,1400.0,3.0,1.5,40.771347,-73.789838
https://www.realtor.com/,3264732064,https://www.realtor.com/realestateandhomes-detail/9815-164th-Ave_Howard-Beach_NY_11414_M32647-32064,949988.0,"98-15 164th Ave, Howard Beach, NY 11414",SOLD,1886.0,3.0,2.5,40.651774,-73.83264
https://www.realtor.com/,3625957693,https://www.realtor.com/realestateandhomes-detail/2420-Cortelyou-Rd_Brooklyn_NY_11226_M36259-57693,875000.0,"2420 Cortelyou Rd, Brooklyn, NY 11226",SOLD,1600.0,4.0,2,40.644055,-73.953908
https://www.realtor.com/,3816771699,https://www.realtor.com/realestateandhomes-detail/268-Shotwell-Ave_Staten-Island_NY_10312_M38167-71699,1388888.0,"268 Shotwell Ave, Staten Island, NY 10312",SOLD,2650.0,4.0,3.5,40.550977,-74.181491
https://www.realtor.com/,3210619317,https://www.realtor.com/realestateandhomes-detail/378-8th-St_Brooklyn_NY_11215_M32106-19317,3199000.0,"378 8th St, Brooklyn, NY 11215",SOLD,2520.0,6.0,2,40.667874,-73.982376
https://www.realtor.com/,3150259159,https://www.realtor.com/realestateandhomes-detail/1268-76th-St_Brooklyn_NY_11228_M31502-59159,1178000.0,"1268 76th St, Brooklyn, NY 11228",SOLD,1580.0,4.0,2,40.619839,-74.008744
https://www.realtor.com/,4025146770,https://www.realtor.com/realestateandhomes-detail/6215-Amboy-Rd_Staten-Island_NY_10309_M40251-46770,887500.0,"6215 Amboy Rd, Staten Island, NY 10309",SOLD,2968.0,6.0,2,40.524496,-74.213303
https://www.realtor.com/,3861868779,https://www.realtor.com/realestateandhomes-detail/8871-16th-Ave_Brooklyn_NY_11214_M38618-68779,925000.0,"8871 16th Ave, Brooklyn, NY 11214",SOLD,1188.0,3.0,2,40.6044,-74.012683
https://www.realtor.com/,4388572465,https://www.realtor.com/realestateandhomes-detail/213-Hurlbert-St_Staten-Island_NY_10305_M43885-72465,589000.0,"213 Hurlbert St, Staten Island, NY 10305",SOLD,1248.0,3.0,1.5,40.592167,-74.08475
https://www.realtor.com/,4318005138,https://www.realtor.com/realestateandhomes-detail/1557-E-34th-St_Brooklyn_NY_11234_M43180-05138,799000.0,"1557 E 34th St, Brooklyn, NY 11234",SOLD,1128.0,3.0,1.5,40.616937,-73.941486
https://www.realtor.com/,3231584971,https://www.realtor.com/realestateandhomes-detail/386-College-Ave_Staten-Island_NY_10314_M32315-84971,639888.0,"386 College Ave, Staten Island, NY 10314",SOLD,1496.0,3.0,1.5,40.620962,-74.133251
https://www.realtor.com/,3353517056,https://www.realtor.com/realestateandhomes-detail/1738-Kimball-St_Brooklyn_NY_11234_M33535-17056,899000.0,"1738 Kimball St, Brooklyn, NY 11234",SOLD,1316.0,3.0,1.5,40.615634,-73.933313
https://www.realtor.com/,3033276291,https://www.realtor.com/realestateandhomes-detail/2060-E-27th-St_Brooklyn_NY_11229_M30332-76291,928000.0,"2060 E 27th St, Brooklyn, NY 11229",SOLD,1224.0,3.0,2,40.600909,-73.945179
https://www.realtor.com/,4445956788,https://www.realtor.com/realestateandhomes-detail/2030-E-67th-St_Brooklyn_NY_11234_M44459-56788,725000.0,"2030 E 67th St, Brooklyn, NY 11234",SOLD,1260.0,3.0,2,40.618663,-73.911616
https://www.realtor.com/,3734337723,https://www.realtor.com/realestateandhomes-detail/313-Mayfair-Dr-N_Brooklyn_NY_11234_M37343-37723,1089000.0,"313 Mayfair Dr N, Brooklyn, NY 11234",SOLD,2360.0,3.0,2.5,40.609899,-73.903518
https://www.realtor.com/,4288970750,https://www.realtor.com/realestateandhomes-detail/20320-33rd-Ave_Bayside_NY_11361_M42889-70750,749000.0,"203-20 33rd Ave, Bayside, NY 11361",SOLD,1080.0,3.0,1,40.768803,-73.785004
https://www.realtor.com/,4041114263,https://www.realtor.com/realestateandhomes-detail/85-Uncas-Ave_Staten-Island_NY_10309_M40411-14263,2399999.0,"85 Uncas Ave, Staten Island, NY 10309",SOLD,5197.0,4.0,4.5,40.528318,-74.205137
https://www.realtor.com/,3448751288,https://www.realtor.com/realestateandhomes-detail/230-Thomas-St_Staten-Island_NY_10306_M34487-51288,998880.0,"230 Thomas St, Staten Island, NY 10306",SOLD,2548.0,3.0,1.5+,40.567481,-74.136249
https://www.realtor.com/,4949319399,https://www.realtor.com/realestateandhomes-detail/416-Watchogue-Rd_Staten-Island_NY_10314_M49493-19399,750000.0,"416 Watchogue Rd, Staten Island, NY 10314",SOLD,1056.0,5.0,2,40.616656,-74.144617
https://www.realtor.com/,9192853763,https://www.realtor.com/realestateandhomes-detail/95-Monahan-Ave_Staten-Island_NY_10314_M91928-53763,829095.0,"95 Monahan Ave, Staten Island, NY 10314",SOLD,2112.0,3.0,3.5,40.58886,-74.149712
https://www.realtor.com/,4537127106,https://www.realtor.com/realestateandhomes-detail/83-Colon-Ave_Staten-Island_NY_10308_M45371-27106,688000.0,"83 Colon Ave, Staten Island, NY 10308",SOLD,1056.0,3.0,1,40.551214,-74.154106
https://www.realtor.com/,3531995027,https://www.realtor.com/realestateandhomes-detail/1780-E-93rd-St_Brooklyn_NY_11236_M35319-95027,699999.0,"1780 E 93rd St, Brooklyn, NY 11236",SOLD,1800.0,3.0,1.5,40.630137,-73.889878
https://www.realtor.com/,9362390081,https://www.realtor.com/realestateandhomes-detail/3345-90th-St-Apt-3H_Jackson-Heights_NY_11372_M93623-90081,350000.0,"33-45 90th St Unit 3H, Jackson Heights, NY 11372",SOLD,1000.0,2.0,1,40.754807,-73.877495
https://www.realtor.com/,3403214019,https://www.realtor.com/realestateandhomes-detail/19-Teri-Ct_Staten-Island_NY_10314_M34032-14019,575000.0,"19 Teri Ct, Staten Island, NY 10314",SOLD,2000.0,2.0,2.5,40.590449,-74.152124
https://www.realtor.com/,4686838246,https://www.realtor.com/realestateandhomes-detail/45-86th-St_Brooklyn_NY_11209_M46868-38246,1699000.0,"45 86th St, Brooklyn, NY 11209",SOLD,2193.0,4.0,2.5+,40.625543,-74.038428
https://www.realtor.com/,9451709314,https://www.realtor.com/realestateandhomes-detail/9306-Flatlands-Ave_Brooklyn_NY_11236_M94517-09314,1225000.0,"9306 Flatlands Ave, Brooklyn, NY 11236",SOLD,704.0,3.0,1.5,40.641644,-73.903481
https://www.realtor.com/,4067689466,https://www.realtor.com/realestateandhomes-detail/2720-Fenton-Ave_Bronx_NY_10469_M40676-89466,639000.0,"2720 Fenton Ave, Bronx, NY 10469",SOLD,1813.0,3.0,2.5,40.86594,-73.844049
https://www.realtor.com/,3870434535,https://www.realtor.com/realestateandhomes-detail/1999-Cornell-Ave_Bronx_NY_10473_M38704-34535,789000.0,"1999 Cornell Ave, Bronx, NY 10473",SOLD,2581.0,4.0,3,40.808007,-73.8509
https://www.realtor.com/,4777044724,https://www.realtor.com/realestateandhomes-detail/8722-69th-Ave_Forest-Hills_NY_11375_M47770-44724,789000.0,"87-22 69th Ave, Forest Hills, NY 11375",SOLD,1216.0,3.0,1,40.710206,-73.855539
https://www.realtor.com/,3947471247,https://www.realtor.com/realestateandhomes-detail/679-Yetman-Ave_Staten-Island_NY_10307_M39474-71247,749999.0,"679 Yetman Ave, Staten Island, NY 10307",SOLD,2279.0,3.0,1.5,40.499309,-74.23944
https://www.realtor.com/,4434184755,https://www.realtor.com/realestateandhomes-detail/16124-130th-Ave_Jamaica_NY_11434_M44341-84755,950000.0,"161-24 130th Ave, Jamaica, NY 11434",SOLD,1892.0,5.0,3.5,40.676183,-73.778436
https://www.realtor.com/,4007814958,https://www.realtor.com/realestateandhomes-detail/40-Center-Pl_Staten-Island_NY_10306_M40078-14958,698888.0,"40 Center Pl, Staten Island, NY 10306",SOLD,2100.0,3.0,2.5,40.562942,-74.100269
https://www.realtor.com/,3540252323,https://www.realtor.com/realestateandhomes-detail/1135-79th-St_Brooklyn_NY_11228_M35402-52323,1249000.0,"1135 79th St, Brooklyn, NY 11228",SOLD,1248.0,3.0,1,40.620292,-74.013096
https://www.realtor.com/,3963710302,https://www.realtor.com/realestateandhomes-detail/367-Sackett-St_Brooklyn_NY_11231_M39637-10302,3150000.0,"367 Sackett St, Brooklyn, NY 11231",SOLD,2928.0,4.0,3,40.682292,-73.992907
https://www.realtor.com/,3332194792,https://www.realtor.com/realestateandhomes-detail/31-Winfield-St_Staten-Island_NY_10305_M33321-94792,450000.0,"31 Winfield St, Staten Island, NY 10305",SOLD,775.0,2.0,1,40.59031,-74.078681
https://www.realtor.com/,3385557176,https://www.realtor.com/realestateandhomes-detail/3135-Buell-St_East-Elmhurst_NY_11369_M33855-57176,1399000.0,"31-35 Buell St, East Elmhurst, NY 11369",SOLD,2448.0,5.0,2.5,40.761403,-73.861395
https://www.realtor.com/,4625195302,https://www.realtor.com/realestateandhomes-detail/2070-67th-St_Brooklyn_NY_11204_M46251-95302,1328000.0,"2070 67th St, Brooklyn, NY 11204",SOLD,1444.0,3.0,2.5,40.614155,-73.985539
https://www.realtor.com/,4166400650,https://www.realtor.com/realestateandhomes-detail/3903-Ely-Ave_Bronx_NY_10466_M41664-00650,599999.0,"3903 Ely Ave, Bronx, NY 10466",SOLD,1900.0,4.0,3,40.888199,-73.845012
https://www.realtor.com/,4755601583,https://www.realtor.com/realestateandhomes-detail/75-Four-Corners-Rd_Staten-Island_NY_10304_M47556-01583,950000.0,"75 Four Corners Rd, Staten Island, NY 10304",SOLD,2452.0,5.0,4,40.591011,-74.103897
https://www.realtor.com/,3358580853,https://www.realtor.com/realestateandhomes-detail/1873-W-4th-St_Brooklyn_NY_11223_M33585-80853,1238000.0,"1873 W 4th St, Brooklyn, NY 11223",SOLD,1998.0,3.0,2.5,40.601988,-73.976283
https://www.realtor.com/,4397712770,https://www.realtor.com/realestateandhomes-detail/77-Comstock-Ave_Staten-Island_NY_10314_M43977-12770,610000.0,"77 Comstock Ave, Staten Island, NY 10314",SOLD,1872.0,3.0,2,40.618693,-74.160327
https://www.realtor.com/,3620555507,https://www.realtor.com/realestateandhomes-detail/93-Saint-Stephens-Pl_Staten-Island_NY_10306_M36205-55507,825000.0,"93 St Stephens Pl, Staten Island, NY 10306",SOLD,2868.0,3.0,2.5,40.577211,-74.119438
https://www.realtor.com/,3391371183,https://www.realtor.com/realestateandhomes-detail/14-Pershing-St_Staten-Island_NY_10305_M33913-71183,799999.0,"14 Pershing St, Staten Island, NY 10305",SOLD,1325.0,3.0,2.5,40.595531,-74.071161
https://www.realtor.com/,4180589864,https://www.realtor.com/realestateandhomes-detail/151-99th-St_Brooklyn_NY_11209_M41805-89864,1250000.0,"151 99th St, Brooklyn, NY 11209",SOLD,1536.0,4.0,0.5,40.614577,-74.035632
https://www.realtor.com/,4397548482,https://www.realtor.com/realestateandhomes-detail/364-Armstrong-Ave_Staten-Island_NY_10308_M43975-48482,694000.0,"364 Armstrong Ave, Staten Island, NY 10308",SOLD,1360.0,3.0,3,40.542316,-74.155549
https://www.realtor.com/,4447037653,https://www.realtor.com/realestateandhomes-detail/94-Cortlandt-St_Staten-Island_NY_10302_M44470-37653,598000.0,"94 Cortlandt St, Staten Island, NY 10302",SOLD,1274.0,2.0,1,40.629309,-74.133509
https://www.realtor.com/,3389024866,https://www.realtor.com/realestateandhomes-detail/2021-Watson-Ave_Bronx_NY_10472_M33890-24866,849000.0,"2021 Watson Ave, Bronx, NY 10472",SOLD,1890.0,3.0,2,40.829279,-73.855848
https://www.realtor.com/,3781135676,https://www.realtor.com/realestateandhomes-detail/436-Atlantic-Ave_Staten-Island_NY_10305_M37811-35676,678000.0,"436 Atlantic Ave, Staten Island, NY 10305",SOLD,1170.0,3.0,1.5,40.588325,-74.085854
https://www.realtor.com/,3235487745,https://www.realtor.com/realestateandhomes-detail/78-Parkinson-Ave_Staten-Island_NY_10305_M32354-87745,699000.0,"78 Parkinson Ave, Staten Island, NY 10305",SOLD,1218.0,3.0,2.5,40.599342,-74.084779
https://www.realtor.com/,3690002624,https://www.realtor.com/realestateandhomes-detail/1611-E-31st-St_Brooklyn_NY_11234_M36900-02624,897000.0,"1611 E 31st St, Brooklyn, NY 11234",SOLD,1664.0,3.0,1.5+,40.613775,-73.941644
https://www.realtor.com/,3146660260,https://www.realtor.com/realestateandhomes-detail/28-McKee-Ave_Staten-Island_NY_10308_M31466-60260,828888.0,"28 McKee Ave, Staten Island, NY 10308",SOLD,1483.0,3.0,3.5,40.545167,-74.141432
https://www.realtor.com/,3802798561,https://www.realtor.com/realestateandhomes-detail/101-Church-Ave_Staten-Island_NY_10314_M38027-98561,509000.0,"101 Church Ave, Staten Island, NY 10314",SOLD,1386.0,2.0,1.5,40.592483,-74.185363
https://www.realtor.com/,3209404062,https://www.realtor.com/realestateandhomes-detail/471-Van-Buren-St_Brooklyn_NY_11221_M32094-04062,795000.0,"471 Van Buren St, Brooklyn, NY 11221",SOLD,1080.0,2.0,1.5,40.691855,-73.929684
https://www.realtor.com/,3697725050,https://www.realtor.com/realestateandhomes-detail/16115-97th-St_Howard-Beach_NY_11414_M36977-25050,699000.0,"161-15 97th St, Howard Beach, NY 11414",SOLD,2002.0,4.0,2,40.655892,-73.834887
https://www.realtor.com/,4730612583,https://www.realtor.com/realestateandhomes-detail/24355-144th-Ave_Rosedale_NY_11422_M47306-12583,849000.0,"243-55 144th Ave, Rosedale, NY 11422",SOLD,1596.0,3.0,2.5,40.659722,-73.737388
https://www.realtor.com/,3769740521,https://www.realtor.com/realestateandhomes-detail/253-Dubois-Ave_Staten-Island_NY_10310_M37697-40521,759000.0,"253 Dubois Ave, Staten Island, NY 10310",SOLD,1943.0,3.0,1.5+,40.625417,-74.127706
https://www.realtor.com/,4831837552,https://www.realtor.com/realestateandhomes-detail/136-Tanglewood-Dr_Staten-Island_NY_10308_M48318-37552,650000.0,"136 Tanglewood Dr, Staten Island, NY 10308",SOLD,1360.0,3.0,2.5,40.565108,-74.149882
https://www.realtor.com/,3884376858,https://www.realtor.com/realestateandhomes-detail/48-Mayberry-Promenade_Staten-Island_NY_10312_M38843-76858,698000.0,"48 Mayberry Promenade, Staten Island, NY 10312",SOLD,1260.0,3.0,2,40.529648,-74.159902
https://www.realtor.com/,3984076552,https://www.realtor.com/realestateandhomes-detail/122-Hamilton-Ave_Staten-Island_NY_10301_M39840-76552,749000.0,"122 Hamilton Ave, Staten Island, NY 10301",SOLD,2188.0,4.0,2,40.644465,-74.081912
https://www.realtor.com/,3827846349,https://www.realtor.com/realestateandhomes-detail/329-Brookfield-Ave_Staten-Island_NY_10308_M38278-46349,550000.0,"329 Brookfield Ave, Staten Island, NY 10308",SOLD,1196.0,3.0,1.5,40.55962,-74.158838
https://www.realtor.com/,4110372605,https://www.realtor.com/realestateandhomes-detail/200-Van-Sicklen-St_Brooklyn_NY_11223_M41103-72605,935000.0,"200 Van Sicklen St, Brooklyn, NY 11223",SOLD,1280.0,3.0,2,40.599455,-73.974897
https://www.realtor.com/,3290733542,https://www.realtor.com/realestateandhomes-detail/1276-Woodrow-Rd_Staten-Island_NY_10309_M32907-33542,779999.0,"1276 Woodrow Rd, Staten Island, NY 10309",SOLD,2100.0,3.0,2.5,40.541454,-74.207418
https://www.realtor.com/,3906016998,https://www.realtor.com/realestateandhomes-detail/92-Alexander-Ave_Staten-Island_NY_10312_M39060-16998,599000.0,"92 Alexander Ave, Staten Island, NY 10312",SOLD,1344.0,3.0,2.5,40.555967,-74.179456
https://www.realtor.com/,4608616482,https://www.realtor.com/realestateandhomes-detail/767-Brighton-Ave_Staten-Island_NY_10301_M46086-16482,720000.0,"767 Brighton Ave, Staten Island, NY 10301",SOLD,1332.0,3.0,2,40.633381,-74.09698
https://www.realtor.com/,4970355763,https://www.realtor.com/realestateandhomes-detail/344-Naughton-Ave_Staten-Island_NY_10305_M49703-55763,688888.0,"344 Naughton Ave, Staten Island, NY 10305",SOLD,1280.0,3.0,2.5,40.58312,-74.093169
https://www.realtor.com/,3989651770,https://www.realtor.com/realestateandhomes-detail/1822-E-12th-St_Brooklyn_NY_11229_M39896-51770,1679000.0,"1822 E 12th St, Brooklyn, NY 11229",SOLD,3100.0,5.0,3,40.6049,-73.960976
https://www.realtor.com/,9471332464,https://www.realtor.com/realestateandhomes-detail/26-McKee-Ave_Staten-Island_NY_10308_M94713-32464,828888.0,"26 McKee Ave, Staten Island, NY 10308",SOLD,1483.0,3.0,3.5,40.545225,-74.141387
https://www.realtor.com/,3324135689,https://www.realtor.com/realestateandhomes-detail/304-Pulaski-Ave_Staten-Island_NY_10303_M33241-35689,474000.0,"304 Pulaski Ave, Staten Island, NY 10303",SOLD,1408.0,3.0,2.5,40.631186,-74.148187
https://www.realtor.com/,3323368909,https://www.realtor.com/realestateandhomes-detail/2321-E-64th-St_Brooklyn_NY_11234_M33233-68909,1199000.0,"2321 E 64th St, Brooklyn, NY 11234",SOLD,2569.0,4.0,3,40.612871,-73.908548
https://www.realtor.com/,3971582526,https://www.realtor.com/realestateandhomes-detail/3258-Decatur-Ave_Bronx_NY_10467_M39715-82526,990000.0,"3258 Decatur Ave, Bronx, NY 10467",SOLD,1834.0,4.0,2,40.875495,-73.874005
https://www.realtor.com/,4331453405,https://www.realtor.com/realestateandhomes-detail/5916-69th-Pl_Maspeth_NY_11378_M43314-53405,999000.0,"59-16 69th Pl, Maspeth, NY 11378",SOLD,1700.0,4.0,2,40.723353,-73.892588
https://www.realtor.com/,3964757050,https://www.realtor.com/realestateandhomes-detail/3606-Corporal-Kennedy-St_Bayside_NY_11361_M39647-57050,1488000.0,"36-06 Corporal Kennedy St, Bayside, NY 11361",SOLD,2350.0,4.0,3,40.766327,-73.777771
https://www.realtor.com/,3157218444,https://www.realtor.com/realestateandhomes-detail/1252-Bay-Ridge-Pkwy_Brooklyn_NY_11228_M31572-18444,1350000.0,"1252 Bay Ridge Pkwy, Brooklyn, NY 11228",SOLD,1440.0,3.0,2.5,40.620622,-74.008524
https://www.realtor.com/,4875692749,https://www.realtor.com/realestateandhomes-detail/4608-196th-St_Flushing_NY_11358_M48756-92749,1118888.0,"46-08 196th St, Queens, NY 11358",SOLD,1232.0,3.0,2,40.753546,-73.785502
https://www.realtor.com/,3266072415,https://www.realtor.com/realestateandhomes-detail/1467-Bay-St_Staten-Island_NY_10305_M32660-72415,818000.0,"1467 Bay St, Staten Island, NY 10305",SOLD,1666.0,3.0,2,40.608089,-74.061346
https://www.realtor.com/,3927386830,https://www.realtor.com/realestateandhomes-detail/400-Skyline-Dr_Staten-Island_NY_10304_M39273-86830,535000.0,"400 Skyline Dr, Staten Island, NY 10304",SOLD,1170.0,3.0,2,40.612869,-74.08098
https://www.realtor.com/,3653370202,https://www.realtor.com/realestateandhomes-detail/1335-E-65th-St_Brooklyn_NY_11234_M36533-70202,899000.0,"1335 E 65th St, Brooklyn, NY 11234",SOLD,1226.0,3.0,2,40.621274,-73.915943
https://www.realtor.com/,4953486886,https://www.realtor.com/realestateandhomes-detail/57-Locust-Ave_Staten-Island_NY_10306_M49534-86886,899000.0,"57 Locust Ave, Staten Island, NY 10306",SOLD,2050.0,4.0,1.5,40.577091,-74.116006
https://www.realtor.com/,4872926142,https://www.realtor.com/realestateandhomes-detail/218-Gansevoort-Blvd_Staten-Island_NY_10314_M48729-26142,649000.0,"218 Gansevoort Blvd, Staten Island, NY 10314",SOLD,1600.0,3.0,2.5,40.606842,-74.127324
https://www.realtor.com/,9148383198,https://www.realtor.com/realestateandhomes-detail/99-Monahan-Ave_Staten-Island_NY_10314_M91483-83198,829099.0,"99 Monahan Ave, Staten Island, NY 10314",SOLD,2112.0,3.0,3.5,40.588943,-74.149864
https://www.realtor.com/,4252945253,https://www.realtor.com/realestateandhomes-detail/40-Lander-Ave_Staten-Island_NY_10314_M42529-45253,724888.0,"40 Lander Ave, Staten Island, NY 10314",SOLD,1260.0,2.0,1.5,40.613086,-74.160367
https://www.realtor.com/,3061856273,https://www.realtor.com/realestateandhomes-detail/107-Jacques-Ave_Staten-Island_NY_10306_M30618-56273,718000.0,"107 Jacques Ave, Staten Island, NY 10306",SOLD,1535.0,3.0,2,40.572963,-74.112324
https://www.realtor.com/,4722898533,https://www.realtor.com/realestateandhomes-detail/78-Shadow-Ln_Staten-Island_NY_10306_M47228-98533,775000.0,"78 Shadow Ln, Staten Island, NY 10306",SOLD,1440.0,3.0,1.5,40.567939,-74.128879
https://www.realtor.com/,4286478151,https://www.realtor.com/realestateandhomes-detail/63-Bay-40th-St_Brooklyn_NY_11214_M42864-78151,1068000.0,"63 Bay 40th St, Brooklyn, NY 11214",SOLD,1116.0,3.0,1.5,40.596111,-73.987511
https://www.realtor.com/,9327601499,https://www.realtor.com/realestateandhomes-detail/8620-Jamaica-Ave_Woodhaven_NY_11421_M93276-01499,1300000.0,"8620 Jamaica Ave, Woodhaven, NY 11421",SOLD,1988.0,2.0,2.5,40.692397,-73.857358
https://www.realtor.com/,4276790290,https://www.realtor.com/realestateandhomes-detail/8721-Glenwood-Rd_Brooklyn_NY_11236_M42767-90290,560000.0,"8721 Glenwood Rd, Brooklyn, NY 11236",SOLD,672.0,2.0,2,40.640827,-73.909466
https://www.realtor.com/,4034226361,https://www.realtor.com/realestateandhomes-detail/196-Lucille-Ave_Staten-Island_NY_10309_M40342-26361,789000.0,"196 Lucille Ave, Staten Island, NY 10309",SOLD,1200.0,3.0,2.5,40.5477,-74.219832
https://www.realtor.com/,4421946853,https://www.realtor.com/realestateandhomes-detail/229-Monroe-St_Brooklyn_NY_11216_M44219-46853,1439000.0,"229 Monroe St, Brooklyn, NY 11216",SOLD,2001.0,4.0,2,40.685839,-73.949381
https://www.realtor.com/,4096566689,https://www.realtor.com/realestateandhomes-detail/6-Greentree-Ln_Staten-Island_NY_10314_M40965-66689,434900.0,"6 Greentree Ln, Staten Island, NY 10314",SOLD,1286.0,3.0,1.5,40.608671,-74.161006
https://www.realtor.com/,3583634954,https://www.realtor.com/realestateandhomes-detail/688-E-92nd-St_Brooklyn_NY_11236_M35836-34954,625000.0,"688 E 92nd St, Brooklyn, NY 11236",SOLD,1188.0,3.0,2,40.650619,-73.915356
https://www.realtor.com/,4032402592,https://www.realtor.com/realestateandhomes-detail/17-Vanessa-Ln_Staten-Island_NY_10312_M40324-02592,670000.0,"17 Vanessa Ln, Staten Island, NY 10312",SOLD,1382.0,3.0,2,40.541883,-74.170113
https://www.realtor.com/,4800928341,https://www.realtor.com/realestateandhomes-detail/366-Stewart-Ave_Staten-Island_NY_10314_M48009-28341,739999.0,"366 Stewart Ave, Staten Island, NY 10314",SOLD,1260.0,4.0,1.5,40.614927,-74.145668
https://www.realtor.com/,3466462057,https://www.realtor.com/realestateandhomes-detail/80-Atlantic-Ave_Staten-Island_NY_10304_M34664-62057,599000.0,"80 Atlantic Ave, Staten Island, NY 10304",SOLD,962.0,3.0,1,40.59357,-74.095892
https://www.realtor.com/,3536448904,https://www.realtor.com/realestateandhomes-detail/6810-Ingram-St_Forest-Hills_NY_11375_M35364-48904,1348000.0,"68-10 Ingram St, Forest Hills, NY 11375",SOLD,1840.0,3.0,2,40.716762,-73.854596
https://www.realtor.com/,3524179482,https://www.realtor.com/realestateandhomes-detail/1112-Bay-24th-St_Far-Rockaway_NY_11691_M35241-79482,775000.0,"11-12 Bay 24th St, Far Rockaway, NY 11691",SOLD,2240.0,3.0,2.5,40.605318,-73.761945
https://www.realtor.com/,9791643034,https://www.realtor.com/realestateandhomes-detail/105-Monahan-Ave_Staten-Island_NY_10314_M97916-43034,829105.0,"105 Monahan Ave, Staten Island, NY 10314",SOLD,2112.0,3.0,3.5,40.589031,-74.150017
https://www.realtor.com/,3432546901,https://www.realtor.com/realestateandhomes-detail/317-Giffords-Ln_Staten-Island_NY_10308_M34325-46901,719000.0,"317 Giffords Ln, Staten Island, NY 10308",SOLD,1272.0,3.0,1.5,40.559291,-74.153578
https://www.realtor.com/,3380047411,https://www.realtor.com/realestateandhomes-detail/161-Carlyle-Grn_Staten-Island_NY_10312_M33800-47411,718000.0,"161 Carlyle Grn, Staten Island, NY 10312",SOLD,2500.0,3.0,3.5,40.554569,-74.199291
https://www.realtor.com/,3554045246,https://www.realtor.com/realestateandhomes-detail/259-Morrison-Ave_Staten-Island_NY_10310_M35540-45246,549999.0,"259 Morrison Ave, Staten Island, NY 10310",SOLD,1168.0,3.0,2,40.628549,-74.115174
https://www.realtor.com/,4212317152,https://www.realtor.com/realestateandhomes-detail/33-E-Brandis-Ave_Staten-Island_NY_10308_M42123-17152,628000.0,"33 E Brandis Ave, Staten Island, NY 10308",SOLD,1316.0,3.0,1.5,40.559647,-74.161472
https://www.realtor.com/,4996350791,https://www.realtor.com/realestateandhomes-detail/2237-E-38th-St_Brooklyn_NY_11234_M49963-50791,799000.0,"2237 E 38th St, Brooklyn, NY 11234",SOLD,2153.0,3.0,2.5,40.606831,-73.925214
https://www.realtor.com/,4670774148,https://www.realtor.com/realestateandhomes-detail/264-Corona-Ave_Staten-Island_NY_10306_M46707-74148,545000.0,"264 Corona Ave, Staten Island, NY 10306",SOLD,1056.0,2.0,1.5,40.56355,-74.142214
https://www.realtor.com/,3779867961,https://www.realtor.com/realestateandhomes-detail/959-Schenck-Ave_Brooklyn_NY_11207_M37798-67961,615000.0,"959 Schenck Ave, Brooklyn, NY 11207",SOLD,1260.0,3.0,1.5,40.657189,-73.880637
https://www.realtor.com/,4194236688,https://www.realtor.com/realestateandhomes-detail/13157-229th-St_Springfield-Gardens_NY_11413_M41942-36688,685000.0,"131-57 229th St, Laurelton, NY 11413",SOLD,1795.0,4.0,1.5,40.678218,-73.740032
https://www.realtor.com/,3340166188,https://www.realtor.com/realestateandhomes-detail/30-Anaconda-St_Staten-Island_NY_10312_M33401-66188,674900.0,"30 Anaconda St, Staten Island, NY 10312",SOLD,1260.0,3.0,2.5,40.545407,-74.195716
https://www.realtor.com/,4516498771,https://www.realtor.com/realestateandhomes-detail/1443-E-15th-St_Brooklyn_NY_11230_M45164-98771,759000.0,"1443 E 15th St, Brooklyn, NY 11230",SOLD,928.0,3.0,1.5,40.614472,-73.959151
https://www.realtor.com/,3066965801,https://www.realtor.com/realestateandhomes-detail/102-Maple-Pkwy_Staten-Island_NY_10303_M30669-65801,649900.0,"102 Maple Pkwy, Staten Island, NY 10303",SOLD,1747.0,3.0,3.5,40.631034,-74.156833
https://www.realtor.com/,4870440697,https://www.realtor.com/realestateandhomes-detail/11432-200th-St_Saint-Albans_NY_11412_M48704-40697,525000.0,"114-32 200th St, Saint Albans, NY 11412",SOLD,1200.0,3.0,1,40.699023,-73.754552
https://www.realtor.com/,4826816279,https://www.realtor.com/realestateandhomes-detail/6353-252nd-St_Little-Neck_NY_11362_M48268-16279,1198888.0,"63-53 252nd St, Douglaston, NY 11362",SOLD,1540.0,3.0,3,40.75488,-73.725203
https://www.realtor.com/,4317011033,https://www.realtor.com/realestateandhomes-detail/7811-10th-Ave_Brooklyn_NY_11228_M43170-11033,1288000.0,"7811 10th Ave, Brooklyn, NY 11228",SOLD,1888.0,3.0,2.5,40.622166,-74.015846
https://www.realtor.com/,3577133683,https://www.realtor.com/realestateandhomes-detail/90-Mosely-Ave_Staten-Island_NY_10312_M35771-33683,684500.0,"90 Mosley Ave, Staten Island, NY 10312",SOLD,1408.0,3.0,1,40.539462,-74.174491
https://www.realtor.com/,9173742697,https://www.realtor.com/realestateandhomes-detail/41-77th-St_Brooklyn_NY_11209_M91737-42697,2075000.0,"41 77th St, Brooklyn, NY 11209",SOLD,2250.0,5.0,3.5,40.63195,-74.035912
https://www.realtor.com/,3922974928,https://www.realtor.com/realestateandhomes-detail/85-Forrestal-Ave_Staten-Island_NY_10312_M39229-74928,899000.0,"85 Forrestal Ave, Staten Island, NY 10312",SOLD,2224.0,4.0,2.5,40.556591,-74.17788
https://www.realtor.com/,3051259447,https://www.realtor.com/realestateandhomes-detail/44-Windemere-Ave_Staten-Island_NY_10306_M30512-59447,679000.0,"44 Windemere Ave, Staten Island, NY 10306",SOLD,1368.0,3.0,1.5,40.564147,-74.129562
https://www.realtor.com/,4210264376,https://www.realtor.com/realestateandhomes-detail/20-Marvin-Rd_Staten-Island_NY_10309_M42102-64376,799713.0,"20 Marvin Rd, Staten Island, NY 10309",SOLD,2104.0,3.0,2,40.536751,-74.217317
https://www.realtor.com/,4004814086,https://www.realtor.com/realestateandhomes-detail/1-Whitewood-Ave_Staten-Island_NY_10310_M40048-14086,789000.0,"1 Whitewood Ave, Staten Island, NY 10310",SOLD,1896.0,3.0,1.5,40.624712,-74.104702
https://www.realtor.com/,3205030098,https://www.realtor.com/realestateandhomes-detail/309-Sanilac-St_Staten-Island_NY_10306_M32050-30098,619000.0,"309 Sanilac St, Staten Island, NY 10306",SOLD,1200.0,3.0,1.5,40.573901,-74.103422
https://www.realtor.com/,4393373321,https://www.realtor.com/realestateandhomes-detail/1638-E-54th-St_Brooklyn_NY_11234_M43933-73321,760000.0,"1638 E 54th St, Brooklyn, NY 11234",SOLD,987.0,2.0,2,40.617615,-73.923122
https://www.realtor.com/,4543185711,https://www.realtor.com/realestateandhomes-detail/159-Wilson-Ter_Staten-Island_NY_10304_M45431-85711,599000.0,"159 Wilson Ter, Staten Island, NY 10304",SOLD,1327.0,3.0,2,40.604131,-74.09694
https://www.realtor.com/,3856873217,https://www.realtor.com/realestateandhomes-detail/906-E-16th-St_Brooklyn_NY_11230_M38568-73217,825000.0,"906 E 16th St, Brooklyn, NY 11230",SOLD,1842.0,4.0,1.5,40.627444,-73.96106
https://www.realtor.com/,3131387704,https://www.realtor.com/realestateandhomes-detail/16124-Grand-Central-Pkwy_Jamaica_NY_11432_M31313-87704,898000.0,"161-24 Grand Central Pkwy, Jamaica, NY 11432",SOLD,1360.0,3.0,1.5,40.71569,-73.803934
https://www.realtor.com/,4778373703,https://www.realtor.com/realestateandhomes-detail/11112-75th-Rd_Forest-Hills_NY_11375_M47783-73703,1499000.0,"111-12 75th Rd, Forest Hills, NY 11375",SOLD,1480.0,4.0,2.5,40.716947,-73.837523
https://www.realtor.com/,3863789091,https://www.realtor.com/realestateandhomes-detail/20102-115th-Ave_Saint-Albans_NY_11412_M38637-89091,699000.0,"201-02 115th Ave, Saint Albans, NY 11412",SOLD,1280.0,3.0,2,40.698029,-73.752626
https://www.realtor.com/,4086107554,https://www.realtor.com/realestateandhomes-detail/57-Carreau-Ave_Staten-Island_NY_10314_M40861-07554,899998.0,"57 Carreau Ave, Staten Island, NY 10314",SOLD,2322.0,4.0,2,40.600265,-74.166302
https://www.realtor.com/,4209834183,https://www.realtor.com/realestateandhomes-detail/1079-79th-St_Brooklyn_NY_11228_M42098-34183,1488888.0,"1079 79th St, Brooklyn, NY 11228",SOLD,1312.0,3.0,2.5,40.620987,-74.014244
https://www.realtor.com/,3538904451,https://www.realtor.com/realestateandhomes-detail/1462-E-23rd-St_Brooklyn_NY_11210_M35389-04451,799000.0,"1462 E 23rd St, Brooklyn, NY 11210",SOLD,1152.0,3.0,2.5,40.61471,-73.951577
https://www.realtor.com/,3376611424,https://www.realtor.com/realestateandhomes-detail/572-Davis-Ave_Staten-Island_NY_10310_M33766-11424,550000.0,"572 Davis Ave, Staten Island, NY 10310",SOLD,1424.0,3.0,1.5,40.6292,-74.108332
https://www.realtor.com/,3674730741,https://www.realtor.com/realestateandhomes-detail/97-Providence-St_Staten-Island_NY_10304_M36747-30741,774900.0,"97 Providence St, Staten Island, NY 10304",SOLD,2236.0,3.0,1.5,40.598239,-74.088193
https://www.realtor.com/,3204367260,https://www.realtor.com/realestateandhomes-detail/114-Virginia-Ave_Staten-Island_NY_10305_M32043-67260,699000.0,"114 Virginia Ave, Staten Island, NY 10305",SOLD,1550.0,5.0,3,40.613731,-74.07074
https://www.realtor.com/,3292759202,https://www.realtor.com/realestateandhomes-detail/570-Watchogue-Rd_Staten-Island_NY_10314_M32927-59202,599999.0,"570 Watchogue Rd, Staten Island, NY 10314",SOLD,1248.0,3.0,1,40.617135,-74.150467
https://www.realtor.com/,4345942153,https://www.realtor.com/realestateandhomes-detail/387-Beach-Rd_Staten-Island_NY_10312_M43459-42153,738000.0,"387 Beach Rd, Staten Island, NY 10312",SOLD,924.0,3.0,1.5,40.542708,-74.157498
https://www.realtor.com/,3047561375,https://www.realtor.com/realestateandhomes-detail/10549-86th-St_Ozone-Park_NY_11417_M30475-61375,629777.0,"105-49 86 St, Ozone Park, NY 11417",SOLD,1440.0,3.0,2,40.678461,-73.851595
https://www.realtor.com/,4347696281,https://www.realtor.com/realestateandhomes-detail/3637-201st-St_Bayside_NY_11361_M43476-96281,965888.0,"36-37 201st St, Bayside, NY 11361",SOLD,1648.0,3.0,2,40.76331,-73.784663
https://www.realtor.com/,3676989442,https://www.realtor.com/realestateandhomes-detail/11111-133rd-St_South-Ozone-Park_NY_11420_M36769-89442,774999.0,"111-11 133rd St, South Ozone Park, NY 11420",SOLD,1748.0,4.0,2.5,40.683471,-73.809302
https://www.realtor.com/,4785257050,https://www.realtor.com/realestateandhomes-detail/6917-Hessler-Ave_Arverne_NY_11692_M47852-57050,325000.0,"69-17 Hessler Ave, Arverne, NY 11692",SOLD,1200.0,4.0,2,40.593889,-73.799052
https://www.realtor.com/,4502265780,https://www.realtor.com/realestateandhomes-detail/211-Beach-Rd_Staten-Island_NY_10312_M45022-65780,749000.0,"211 Beach Rd, Staten Island, NY 10312",SOLD,1224.0,4.0,2.5,40.538896,-74.153738
https://www.realtor.com/,4001498241,https://www.realtor.com/realestateandhomes-detail/2012-Gerritsen-Ave_Brooklyn_NY_11229_M40014-98241,1549999.0,"2012 Gerritsen Ave, Brooklyn, NY 11229",SOLD,4590.0,5.0,4.5,40.604767,-73.938606
https://www.realtor.com/,3497234127,https://www.realtor.com/realestateandhomes-detail/8869-19th-Ave_Brooklyn_NY_11214_M34972-34127,1100000.0,"8869 19th Ave, Brooklyn, NY 11214",SOLD,1584.0,3.0,2,40.600395,-74.005816
https://www.realtor.com/,4543647270,https://www.realtor.com/realestateandhomes-detail/1719-E-22nd-St_Brooklyn_NY_11229_M45436-47270,1350000.0,"1719 E 22nd St, Brooklyn, NY 11229",SOLD,1584.0,3.0,2.5,40.609655,-73.95106
https://www.realtor.com/,3846832384,https://www.realtor.com/realestateandhomes-detail/98-Livingston-Ave_Staten-Island_NY_10314_M38468-32384,750000.0,"98 Livingston Ave, Staten Island, NY 10314",SOLD,1205.0,4.0,2.5,40.603275,-74.128987
https://www.realtor.com/,3251377558,https://www.realtor.com/realestateandhomes-detail/403-Montreal-Ave_Staten-Island_NY_10306_M32513-77558,599000.0,"403 Montreal Ave, Staten Island, NY 10306",SOLD,1200.0,3.0,1.5,40.557817,-74.123309
https://www.realtor.com/,3400712339,https://www.realtor.com/realestateandhomes-detail/32-Renfrew-Pl_Staten-Island_NY_10303_M34007-12339,549900.0,"32 Renfrew Pl, Staten Island, NY 10303",SOLD,1296.0,4.0,1.5,40.626469,-74.14733
https://www.realtor.com/,4919096719,https://www.realtor.com/realestateandhomes-detail/32-Barbara-St_Staten-Island_NY_10306_M49190-96719,705000.0,"32 Barbara St, Staten Island, NY 10306",SOLD,1296.0,3.0,1.5,40.568421,-74.129644
https://www.realtor.com/,4449855343,https://www.realtor.com/realestateandhomes-detail/228-N-Railroad-Ave_Staten-Island_NY_10304_M44498-55343,729000.0,"228 N Railroad Ave, Staten Island, NY 10304",SOLD,1292.0,3.0,2.5,40.597928,-74.087208
https://www.realtor.com/,3488260188,https://www.realtor.com/realestateandhomes-detail/37-Blaine-Ct_Staten-Island_NY_10310_M34882-60188,619999.0,"37 Blaine Ct, Staten Island, NY 10310",SOLD,1760.0,4.0,2.5,40.626049,-74.112342
https://www.realtor.com/,3634615987,https://www.realtor.com/realestateandhomes-detail/141-83rd-St_Brooklyn_NY_11209_M36346-15987,2638000.0,"141 83rd St, Brooklyn, NY 11209",SOLD,2846.0,5.0,4.5,40.626865,-74.034131
https://www.realtor.com/,3645030578,https://www.realtor.com/realestateandhomes-detail/6605-Avenue-N_Brooklyn_NY_11234_M36450-30578,778000.0,"6605 Avenue N, Brooklyn, NY 11234",SOLD,1200.0,3.0,2.5,40.621114,-73.914302
https://www.realtor.com/,4114962766,https://www.realtor.com/realestateandhomes-detail/194-Sheraden-Ave_Staten-Island_NY_10314_M41149-62766,799999.0,"194 Sheraden Ave, Staten Island, NY 10314",SOLD,2010.0,3.0,2,40.606415,-74.138224
https://www.realtor.com/,4578319271,https://www.realtor.com/realestateandhomes-detail/112-Ebony-St_Staten-Island_NY_10306_M45783-19271,649900.0,"112 Ebony St, Staten Island, NY 10306",SOLD,1176.0,3.0,1.5,40.572655,-74.126373
https://www.realtor.com/,3548476876,https://www.realtor.com/realestateandhomes-detail/72-Brookfield-Ave_Staten-Island_NY_10308_M35484-76876,579000.0,"72 Brookfield Ave, Staten Island, NY 10308",SOLD,1848.0,3.0,3,40.552747,-74.156383
https://www.realtor.com/,4759849900,https://www.realtor.com/realestateandhomes-detail/93-Vedder-Ave_Staten-Island_NY_10302_M47598-49900,620000.0,"93 Vedder Ave, Staten Island, NY 10302",SOLD,1092.0,3.0,2,40.621032,-74.146988
https://www.realtor.com/,3241142722,https://www.realtor.com/realestateandhomes-detail/25-Elmtree-Ave_Staten-Island_NY_10306_M32411-42722,548888.0,"25 Elmtree Ave, Staten Island, NY 10306",SOLD,1042.0,2.0,1.5+,40.574272,-74.104688
https://www.realtor.com/,3151516205,https://www.realtor.com/realestateandhomes-detail/63-Ebbitts-St_Staten-Island_NY_10306_M31515-16205,628000.0,"63 Ebbitts St, Staten Island, NY 10306",SOLD,1008.0,2.0,1.5,40.563484,-74.108005
https://www.realtor.com/,4812780134,https://www.realtor.com/realestateandhomes-detail/53-School-Rd_Staten-Island_NY_10305_M48127-80134,669000.0,"53 School Rd, Staten Island, NY 10305",SOLD,1140.0,3.0,1.5,40.606573,-74.062967
https://www.realtor.com/,3420449991,https://www.realtor.com/realestateandhomes-detail/8-Dole-St_Staten-Island_NY_10312_M34204-49991,699000.0,"8 Dole St, Staten Island, NY 10312",SOLD,997.0,2.0,1,40.527502,-74.172318
https://www.realtor.com/,3195354251,https://www.realtor.com/realestateandhomes-detail/64-Long-Pond-Ln_Staten-Island_NY_10304_M31953-54251,530000.0,"64 Long Pond Ln, Staten Island, NY 10304",SOLD,1404.0,3.0,2.5,40.614657,-74.080707
https://www.realtor.com/,3015801713,https://www.realtor.com/realestateandhomes-detail/13-Ebony-Ct_Brooklyn_NY_11229_M30158-01713,647000.0,"13 Ebony Ct, Brooklyn, NY 11229",SOLD,1248.0,4.0,1,40.591371,-73.927035
https://www.realtor.com/,3039026771,https://www.realtor.com/realestateandhomes-detail/284-Ilyssa-Way_Staten-Island_NY_10312_M30390-26771,338000.0,"284 Ilyssa Way, Staten Island, NY 10312",SOLD,1553.0,3.0,3,40.560018,-74.185148
https://www.realtor.com/,4446670068,https://www.realtor.com/realestateandhomes-detail/406-Cromwell-Ave_Staten-Island_NY_10305_M44466-70068,699000.0,"406 Cromwell Ave, Staten Island, NY 10305",SOLD,1540.0,4.0,2.5,40.586205,-74.088845
https://www.realtor.com/,3008089589,https://www.realtor.com/realestateandhomes-detail/169-Barlow-Dr-S_Brooklyn_NY_11234_M30080-89589,989000.0,"169 Barlow Dr S, Brooklyn, NY 11234",SOLD,1959.0,4.0,2.5,40.607942,-73.906529
https://www.realtor.com/,4649032360,https://www.realtor.com/realestateandhomes-detail/86-Bradley-Ave_Staten-Island_NY_10314_M46490-32360,679900.0,"86 Bradley Ave, Staten Island, NY 10314",SOLD,1196.0,3.0,1.5,40.609989,-74.132572
https://www.realtor.com/,4081741844,https://www.realtor.com/realestateandhomes-detail/11607-219th-St_Jamaica_NY_11411_M40817-41844,579999.0,"116 07 219th St, Cambria Heights, NY 11411",SOLD,1344.0,3.0,1,40.696709,-73.740021
https://www.realtor.com/,4223997319,https://www.realtor.com/realestateandhomes-detail/1332-146th-Pl_Whitestone_NY_11357_M42239-97319,988000.0,"13-32 146th Pl, Whitestone, NY 11357",SOLD,2100.0,3.0,3,40.787826,-73.820105
https://www.realtor.com/,3567535364,https://www.realtor.com/realestateandhomes-detail/2377-56th-Dr_Brooklyn_NY_11234_M35675-35364,1899000.0,"2377 56th Dr, Brooklyn, NY 11234",SOLD,3350.0,4.0,3,40.604816,-73.909107
https://www.realtor.com/,3579854800,https://www.realtor.com/realestateandhomes-detail/14-Saccheri-Ct_Staten-Island_NY_10308_M35798-54800,585000.0,"14 Saccheri Ct, Staten Island, NY 10308",SOLD,1336.0,2.0,2.5,40.549057,-74.154421
https://www.realtor.com/,3851024023,https://www.realtor.com/realestateandhomes-detail/7722-62nd-St_Ridgewood_NY_11385_M38510-24023,689000.0,"77-22 62nd St, Glendale, NY 11385",SOLD,1280.0,3.0,1,40.696918,-73.89288
https://www.realtor.com/,3897771778,https://www.realtor.com/realestateandhomes-detail/58-Roanoke-St_Staten-Island_NY_10314_M38977-71778,649000.0,"58 Roanoke St, Staten Island, NY 10314",SOLD,1456.0,3.0,3,40.597272,-74.134726
https://www.realtor.com/,3450939309,https://www.realtor.com/realestateandhomes-detail/1412-156th-St_Whitestone_NY_11357_M34509-39309,1599898.0,"14-12 156th St, Beechhurst, NY 11357",SOLD,2970.0,5.0,4,40.78892,-73.806093
https://www.realtor.com/,4508541530,https://www.realtor.com/realestateandhomes-detail/7021-Perry-Ter_Brooklyn_NY_11209_M45085-41530,1125000.0,"7021 Perry Ter, Brooklyn, NY 11209",SOLD,1932.0,3.0,1.5,40.635443,-74.029809
https://www.realtor.com/,3229655366,https://www.realtor.com/realestateandhomes-detail/11406-84th-Ave_Richmond-Hill_NY_11418_M32296-55366,999000.0,"114-06 84th Ave, Richmond Hill, NY 11418",SOLD,2743.0,4.0,3.5,40.703053,-73.837156
https://www.realtor.com/,3890415866,https://www.realtor.com/realestateandhomes-detail/20-Greencroft-Ln_Staten-Island_NY_10308_M38904-15866,888888.0,"20 Greencroft Ln, Staten Island, NY 10308",SOLD,2088.0,4.0,3,40.546944,-74.141419
https://www.realtor.com/,4938857971,https://www.realtor.com/realestateandhomes-detail/52-Indale-Ave_Staten-Island_NY_10309_M49388-57971,1095000.0,"52 Indale Ave, Staten Island, NY 10309",SOLD,2704.0,4.0,3.5,40.514304,-74.204438
https://www.realtor.com/,3330893633,https://www.realtor.com/realestateandhomes-detail/118-E-Macon-Ave_Staten-Island_NY_10308_M33308-93633,629000.0,"118 E Macon Ave, Staten Island, NY 10308",SOLD,1120.0,3.0,1.5,40.558136,-74.164124
https://www.realtor.com/,4645427560,https://www.realtor.com/realestateandhomes-detail/2137-W-7th-St_Brooklyn_NY_11223_M46454-27560,848000.0,"2137 W 7th St, Brooklyn, NY 11223",SOLD,1120.0,3.0,1.5+,40.595473,-73.978039
https://www.realtor.com/,3209547226,https://www.realtor.com/realestateandhomes-detail/136-Pacific-Ave_Staten-Island_NY_10312_M32095-47226,675000.0,"136 Pacific Ave, Staten Island, NY 10312",SOLD,864.0,3.0,1.5,40.538867,-74.155537
https://www.realtor.com/,4749358422,https://www.realtor.com/realestateandhomes-detail/3504-Avenue-P_Brooklyn_NY_11234_M47493-58422,749000.0,"3504 Avenue P, Brooklyn, NY 11234",SOLD,1800.0,3.0,2,40.615728,-73.939018
https://www.realtor.com/,4367330878,https://www.realtor.com/realestateandhomes-detail/1099-Olympia-Blvd_Staten-Island_NY_10306_M43673-30878,548000.0,"1099 Olympia Blvd, Staten Island, NY 10306",SOLD,1098.0,2.0,1.5,40.572055,-74.094097
https://www.realtor.com/,4285590218,https://www.realtor.com/realestateandhomes-detail/15-Astor-Ave_Staten-Island_NY_10314_M42855-90218,549000.0,"15 Astor Ave, Staten Island, NY 10314",SOLD,1152.0,3.0,1.5,40.614462,-74.1592
https://www.realtor.com/,4651918071,https://www.realtor.com/realestateandhomes-detail/958-E-13th-St_Brooklyn_NY_11230_M46519-18071,929900.0,"958 E 13th St, Brooklyn, NY 11230",SOLD,1917.0,4.0,2,40.625953,-73.963723
https://www.realtor.com/,3215769538,https://www.realtor.com/realestateandhomes-detail/960-E-40th-St_Brooklyn_NY_11210_M32157-69538,756000.0,"960 E 40th St, Brooklyn, NY 11210",SOLD,1216.0,4.0,2.5,40.631851,-73.938186
https://www.realtor.com/,3098877648,https://www.realtor.com/realestateandhomes-detail/803-E-39th-St_Brooklyn_NY_11210_M30988-77648,715000.0,"803 E 39th St, Brooklyn, NY 11210",SOLD,1560.0,3.0,2,40.637535,-73.939201
https://www.realtor.com/,9336595378,https://www.realtor.com/realestateandhomes-detail/641A-Baltic-St_Brooklyn_NY_11217_M93365-95378,1599000.0,"641A Baltic St, Brooklyn, NY 11217",SOLD,1470.0,4.0,3,40.680195,-73.979393
https://www.realtor.com/,3191295260,https://www.realtor.com/realestateandhomes-detail/4716-Avenue-H_Brooklyn_NY_11234_M31912-95260,699000.0,"4716 Avenue H, Brooklyn, NY 11234",SOLD,2835.0,3.0,3,40.632459,-73.930673
https://www.realtor.com/,3796812042,https://www.realtor.com/realestateandhomes-detail/92-Arlington-Pl_Staten-Island_NY_10303_M37968-12042,575000.0,"92 Arlington Pl, Staten Island, NY 10303",SOLD,1320.0,4.0,3,40.63567,-74.166895
https://www.realtor.com/,4509351384,https://www.realtor.com/realestateandhomes-detail/365-Colony-Ave_Staten-Island_NY_10306_M45093-51384,599000.0,"365 Colony Ave, Staten Island, NY 10306",SOLD,884.0,3.0,2,40.569856,-74.095041
https://www.realtor.com/,4747561586,https://www.realtor.com/realestateandhomes-detail/220-Saint-John-Ave_Staten-Island_NY_10314_M47475-61586,749000.0,"220 St John Ave, Staten Island, NY 10314",SOLD,1200.0,3.0,1.5,40.618094,-74.135104
https://www.realtor.com/,3325425689,https://www.realtor.com/realestateandhomes-detail/306-Oldfield-St_Staten-Island_NY_10306_M33254-25689,849999.0,"306 Oldfield St, Staten Island, NY 10306",SOLD,1260.0,3.0,2,40.572492,-74.10074
https://www.realtor.com/,4459667659,https://www.realtor.com/realestateandhomes-detail/9-Ferndale-Ave_Staten-Island_NY_10314_M44596-67659,475000.0,"9 Ferndale Ave, Staten Island, NY 10314",SOLD,756.0,2.0,1.5,40.593748,-74.157977
https://www.realtor.com/,3926779203,https://www.realtor.com/realestateandhomes-detail/5-Hempstead-Ave_Staten-Island_NY_10306_M39267-79203,699999.0,"5 Hempstead Ave, Staten Island, NY 10306",SOLD,1200.0,3.0,2.5,40.573578,-74.093092
https://www.realtor.com/,4424871266,https://www.realtor.com/realestateandhomes-detail/1559-E-15th-St_Brooklyn_NY_11230_M44248-71266,1050000.0,"1559 E 15th St, Brooklyn, NY 11230",SOLD,1566.0,3.0,2,40.611542,-73.95856
https://www.realtor.com/,4535690181,https://www.realtor.com/realestateandhomes-detail/107-McVeigh-Ave_Staten-Island_NY_10314_M45356-90181,968000.0,"107 McVeigh Ave, Staten Island, NY 10314",SOLD,2845.0,3.0,2.5,40.588983,-74.153066
https://www.realtor.com/,4902881663,https://www.realtor.com/realestateandhomes-detail/51-Thornycroft-Ave_Staten-Island_NY_10312_M49028-81663,699000.0,"51 Thornycroft Ave, Staten Island, NY 10312",SOLD,1404.0,3.0,1.5,40.535135,-74.150368
https://www.realtor.com/,4261179068,https://www.realtor.com/realestateandhomes-detail/112-Roe-St_Staten-Island_NY_10310_M42611-79068,698000.0,"112 Roe St, Staten Island, NY 10310",SOLD,2160.0,3.0,3.5,40.631167,-74.121792
https://www.realtor.com/,4807447803,https://www.realtor.com/realestateandhomes-detail/18-Dare-Ct_Brooklyn_NY_11229_M48074-47803,699000.0,"18 Dare Ct, Brooklyn, NY 11229",SOLD,1278.0,4.0,3,40.586893,-73.920507
https://www.realtor.com/,3245628606,https://www.realtor.com/realestateandhomes-detail/102-Bradhurst-Ave-Apt-1107_New-York_NY_10039_M32456-28606,539999.0,"102 Bradhurst Ave Apt 1107, New York, NY 10039",SOLD,953.0,2.0,2,40.824596,-73.941757
https://www.realtor.com/,4364863652,https://www.realtor.com/realestateandhomes-detail/1305-Elm-Ave_Brooklyn_NY_11230_M43648-63652,915000.0,"1305 Elm Ave, Brooklyn, NY 11230",SOLD,1309.0,3.0,1.5,40.617456,-73.961534
https://www.realtor.com/,4688083000,https://www.realtor.com/realestateandhomes-detail/2701-Goethals-Rd-N-Apt-D6_Staten-Island_NY_10303_M46880-83000,129900.0,"2701 Goethals Rd N Apt D6, Staten Island, NY 10303",SOLD,900.0,2.0,1,40.627705,-74.179016
https://www.realtor.com/,3399584762,https://www.realtor.com/realestateandhomes-detail/8647-16th-Ave_Brooklyn_NY_11214_M33995-84762,948000.0,"8647 16th Ave, Brooklyn, NY 11214",SOLD,1492.0,4.0,2,40.608975,-74.008028
https://www.realtor.com/,4141681224,https://www.realtor.com/realestateandhomes-detail/10031-194th-St_Hollis_NY_11423_M41416-81224,825000.0,"100-31 194th St, Hollis, NY 11423",SOLD,1650.0,4.0,2.5,40.708201,-73.764077
https://www.realtor.com/,4718620653,https://www.realtor.com/realestateandhomes-detail/6802-52nd-Dr_Maspeth_NY_11378_M47186-20653,749999.0,"68-02 52nd Dr, Maspeth, NY 11378",SOLD,1560.0,4.0,2,40.731928,-73.89708
https://www.realtor.com/,3253669857,https://www.realtor.com/realestateandhomes-detail/20914-27th-Ave_Bayside_NY_11360_M32536-69857,1499999.0,"209-14 27th Ave, Bayside, NY 11360",SOLD,2700.0,3.0,3,40.775909,-73.781828
https://www.realtor.com/,4283605677,https://www.realtor.com/realestateandhomes-detail/12165-233rd-St_Rosedale_NY_11422_M42836-05677,639000.0,"121-65 233rd St, Jamaica, NY 11422",SOLD,1268.0,4.0,3,40.683204,-73.73267
https://www.realtor.com/,3063518566,https://www.realtor.com/realestateandhomes-detail/986-76th-St_Brooklyn_NY_11228_M30635-18566,1460000.0,"986 76th St, Brooklyn, NY 11228",SOLD,1470.0,3.0,2,40.623776,-74.015264
https://www.realtor.com/,4533720161,https://www.realtor.com/realestateandhomes-detail/125-Meadow-Ave_Staten-Island_NY_10304_M45337-20161,1100000.0,"125 Meadow Ave, Staten Island, NY 10304",SOLD,4720.0,3.0,4,40.600119,-74.092893
