Data Source,ID,Post link,Price,Address,Status,Area,Bedrooms,Bathrooms,Latitude,Longitude
https://www.realtor.com/,7109976785,https://www.realtor.com/realestateandhomes-detail/9906-S-Seeley-Ave_Chicago_IL_60643_M71099-76785,215000.0,"9906 S Seeley Ave, Chicago, IL 60643",FOR_SALE,1567.0,3,2,41.713489,-87.673732
https://www.realtor.com/,8027933003,https://www.realtor.com/realestateandhomes-detail/11549-S-Church-St_Chicago_IL_60643_M80279-33003,79000.0,"11549 S Church St, Chicago, IL 60643",FOR_SALE,1386.0,4,2,41.683247,-87.669495
https://www.realtor.com/,8854936353,https://www.realtor.com/realestateandhomes-detail/3015-N-Racine-Ave_Chicago_IL_60657_M88549-36353,1200000.0,"3015 N Racine Ave, Chicago, IL 60657",FOR_SALE,3100.0,4,4,41.93674,-87.658509
https://www.realtor.com/,8486009421,https://www.realtor.com/realestateandhomes-detail/4540-S-Prairie-Ave_Chicago_IL_60653_M84860-09421,1099998.0,"4540 S Prairie Ave, Chicago, IL 60653",FOR_SALE,4500.0,5,3,41.811738,-87.620038
https://www.realtor.com/,7338842865,https://www.realtor.com/realestateandhomes-detail/5241-W-Adams-St_Chicago_IL_60644_M73388-42865,304900.0,"5241 W Adams St, Chicago, IL 60644",FOR_SALE,2094.0,4,2,41.878188,-87.756618
https://www.realtor.com/,7106444683,https://www.realtor.com/realestateandhomes-detail/1316-N-Campbell-Ave_Chicago_IL_60622_M71064-44683,1075000.0,"1316 N Campbell Ave, Chicago, IL 60622",FOR_SALE,3976.0,3,3.5,41.905352,-87.689905
https://www.realtor.com/,7877433011,https://www.realtor.com/realestateandhomes-detail/2155-N-Tripp-Ave_Chicago_IL_60639_M78774-33011,375000.0,"2155 N Tripp Ave, Chicago, IL 60639",FOR_SALE,1047.0,4,2,41.920562,-87.732426
https://www.realtor.com/,8676061051,https://www.realtor.com/realestateandhomes-detail/3828-W-59th-Pl_Chicago_IL_60629_M86760-61051,409000.0,"3828 W 59th Pl, Chicago, IL 60629",FOR_SALE,3105.0,5,3,41.785345,-87.719221
https://www.realtor.com/,7617958997,https://www.realtor.com/realestateandhomes-detail/9737-S-Claremont-Ave_Chicago_IL_60643_M76179-58997,350000.0,"9737 S Claremont Ave, Chicago, IL 60643",FOR_SALE,20000.0,2,1,41.716163,-87.680356
https://www.realtor.com/,7541127996,https://www.realtor.com/realestateandhomes-detail/1039-W-104th-Pl_Chicago_IL_60643_M75411-27996,209900.0,"1039 W 104th Pl, Chicago, IL 60643",FOR_SALE,1269.0,4,2,41.703858,-87.649097
https://www.realtor.com/,8468246560,https://www.realtor.com/realestateandhomes-detail/7806-S-Kimbark-Ave_Chicago_IL_60619_M84682-46560,185000.0,"7806 S Kimbark Ave, Chicago, IL 60619",FOR_SALE,1050.0,2,1,41.752935,-87.593442
https://www.realtor.com/,7985982924,https://www.realtor.com/realestateandhomes-detail/10239-S-Sangamon-St_Chicago_IL_60643_M79859-82924,272053.0,"10239 S Sangamon St, Chicago, IL 60643",FOR_SALE,1550.0,5,2.5,41.707511,-87.646154
https://www.realtor.com/,7366697491,https://www.realtor.com/realestateandhomes-detail/7743-S-Kolmar-Ave_Chicago_IL_60652_M73666-97491,315000.0,"7743 S Kolmar Ave, Chicago, IL 60652",FOR_SALE,2350.0,6,2,41.751652,-87.735025
https://www.realtor.com/,8131893211,https://www.realtor.com/realestateandhomes-detail/9209-S-Luella-Ave_Chicago_IL_60617_M81318-93211,399900.0,"9209 S Luella Ave, Chicago, IL 60617",FOR_SALE,1920.0,3,3,41.727806,-87.569059
https://www.realtor.com/,8092145554,https://www.realtor.com/realestateandhomes-detail/7641-W-Everell-Ave_Chicago_IL_60631_M80921-45554,398500.0,"7641 W Everell Ave, Chicago, IL 60631",FOR_SALE,1210.0,3,1,41.992244,-87.818656
https://www.realtor.com/,8549971475,https://www.realtor.com/realestateandhomes-detail/3730-W-Concord-Pl_Chicago_IL_60647_M85499-71475,629900.0,"3730 W Concord Pl, Chicago, IL 60647",FOR_SALE,1859.0,3,2.5,41.911128,-87.720294
https://www.realtor.com/,7572742813,https://www.realtor.com/realestateandhomes-detail/6946-S-Claremont-Ave_Chicago_IL_60636_M75727-42813,249900.0,"6946 S Claremont Ave, Chicago, IL 60636",FOR_SALE,1500.0,3,2,41.766944,-87.682345
https://www.realtor.com/,7443579760,https://www.realtor.com/realestateandhomes-detail/4622-W-Patterson-Ave_Chicago_IL_60641_M74435-79760,335000.0,"4622 W Patterson Ave, Chicago, IL 60641",FOR_SALE,1000.0,2,1,41.947339,-87.743403
https://www.realtor.com/,7257261939,https://www.realtor.com/realestateandhomes-detail/11823-S-Harvard-Ave_Chicago_IL_60628_M72572-61939,70000.0,"11823 S Harvard Ave, Chicago, IL 60628",FOR_SALE,1382.0,4,2,41.679043,-87.630755
https://www.realtor.com/,8712947334,https://www.realtor.com/realestateandhomes-detail/7624-S-Honore-St_Chicago_IL_60620_M87129-47334,310000.0,"7624 S Honore St, Chicago, IL 60620",FOR_SALE,1750.0,4,2,41.754948,-87.669981
https://www.realtor.com/,8153070815,https://www.realtor.com/realestateandhomes-detail/6110-S-Richmond-St_Chicago_IL_60629_M81530-70815,215000.0,"6110 S Richmond St, Chicago, IL 60629",FOR_SALE,1250.0,4,2,41.78232,-87.69749
https://www.realtor.com/,7374355686,https://www.realtor.com/realestateandhomes-detail/3155-W-Wallen-Ave_Chicago_IL_60645_M73743-55686,1149000.0,"3155 W Wallen Ave, Chicago, IL 60645",FOR_SALE,3462.0,5,5.5,42.001305,-87.709145
https://www.realtor.com/,7923949651,https://www.realtor.com/realestateandhomes-detail/1852-W-45th-St_Chicago_IL_60609_M79239-49651,187000.0,"1852 W 45th St, Chicago, IL 60609",FOR_SALE,1000.0,3,2,41.812434,-87.672011
https://www.realtor.com/,7058993213,https://www.realtor.com/realestateandhomes-detail/1932-N-Burling-St_Chicago_IL_60614_M70589-93213,23500000.0,"1932 N Burling St, Chicago, IL 60614",FOR_SALE,25000.0,6,7.5+,41.91708,-87.647591
https://www.realtor.com/,8101602636,https://www.realtor.com/realestateandhomes-detail/5107-N-Nagle-Ave_Chicago_IL_60630_M81016-02636,289000.0,"5107 N Nagle St, Chicago, IL 60630",FOR_SALE,1200.0,3,1,41.974105,-87.787555
https://www.realtor.com/,7203494520,https://www.realtor.com/realestateandhomes-detail/5658-S-Keeler-Ave_Chicago_IL_60629_M72034-94520,275000.0,"5658 S Keeler Ave, Chicago, IL 60629",FOR_SALE,1645.0,3,1.5,41.789681,-87.728314
https://www.realtor.com/,7469734674,https://www.realtor.com/realestateandhomes-detail/5447-S-Oak-Park-Ave_Chicago_IL_60638_M74697-34674,245000.0,"5447 S Oak Park Ave, Chicago, IL 60638",FOR_SALE,1061.0,3,2,41.79271,-87.791241
https://www.realtor.com/,8070407954,https://www.realtor.com/realestateandhomes-detail/10812-S-Longwood-Dr_Chicago_IL_60643_M80704-07954,814900.0,"10812 S Longwood Dr, Chicago, IL 60643",FOR_SALE,6721.0,5,2.5+,41.69695,-87.671852
https://www.realtor.com/,7004743022,https://www.realtor.com/realestateandhomes-detail/6344-N-Ionia-Ave_Chicago_IL_60646_M70047-43022,399900.0,"6344 N Ionia Ave, Chicago, IL 60646",FOR_SALE,1190.0,3,2.5,41.996328,-87.751196
https://www.realtor.com/,8610524780,https://www.realtor.com/realestateandhomes-detail/4329-S-Wood-St_Chicago_IL_60609_M86105-24780,189999.0,"4329 S Wood St, Chicago, IL 60609",FOR_SALE,2500.0,4,3,41.814924,-87.669642
https://www.realtor.com/,8038811693,https://www.realtor.com/realestateandhomes-detail/6900-N-Oriole-Ave_Chicago_IL_60631_M80388-11693,599900.0,"6900 N Oriole Ave, Chicago, IL 60631",FOR_SALE,2000.0,3,1.5,42.006151,-87.81679
https://www.realtor.com/,8000203105,https://www.realtor.com/realestateandhomes-detail/8505-S-King-Dr_Chicago_IL_60619_M80002-03105,109000.0,"8505 S King Dr, Chicago, IL 60619",FOR_SALE,1063.0,4,2,41.739946,-87.614124
https://www.realtor.com/,7337119889,https://www.realtor.com/realestateandhomes-detail/3130-W-Jarvis-Ave_Chicago_IL_60645_M73371-19889,439000.0,"3130 W Jarvis Ave, Chicago, IL 60645",FOR_SALE,1404.0,4,2.5,42.015777,-87.708032
https://www.realtor.com/,7851577448,https://www.realtor.com/realestateandhomes-detail/5834-W-Diversey-Ave_Chicago_IL_60639_M78515-77448,329900.0,"5834 W Diversey Ave, Chicago, IL 60639",FOR_SALE,1424.0,4,2.5,41.931449,-87.772509
https://www.realtor.com/,7760587131,https://www.realtor.com/realestateandhomes-detail/10851-S-Lawndale-Ave_Chicago_IL_60655_M77605-87131,399999.0,"10851 S Lawndale Ave, Chicago, IL 60655",FOR_SALE,1200.0,3,2,41.69538,-87.712789
https://www.realtor.com/,7163776211,https://www.realtor.com/realestateandhomes-detail/9404-S-Wabash-Ave_Chicago_IL_60619_M71637-76211,249000.0,"9404 S Wabash Ave, Chicago, IL 60619",FOR_SALE,1056.0,3,1,41.723359,-87.622722
https://www.realtor.com/,7089020730,https://www.realtor.com/realestateandhomes-detail/1706-W-100th-Pl_Chicago_IL_60643_M70890-20730,199900.0,"1706 W 100th Pl, Chicago, IL 60643",FOR_SALE,2527.0,3,1.5,41.711447,-87.66519
https://www.realtor.com/,8283621116,https://www.realtor.com/realestateandhomes-detail/4929-N-Hamlin-Ave_Chicago_IL_60625_M82836-21116,338000.0,"4929 N Hamlin Ave, Chicago, IL 60625",FOR_SALE,1696.0,4,3,41.97098,-87.72286
https://www.realtor.com/,8611029168,https://www.realtor.com/realestateandhomes-detail/8921-S-Eberhart-Ave_Chicago_IL_60619_M86110-29168,369999.0,"8921 S Eberhart Ave, Chicago, IL 60619",FOR_SALE,3400.0,5,4,41.732239,-87.611824
https://www.realtor.com/,8418011551,https://www.realtor.com/realestateandhomes-detail/1720-W-Winnemac-Ave_Chicago_IL_60640_M84180-11551,900000.0,"1720 W Winnemac Ave, Chicago, IL 60640",FOR_SALE,2513.0,3,2.5,41.973674,-87.672026
https://www.realtor.com/,8718380641,https://www.realtor.com/realestateandhomes-detail/4608-S-Avers-Ave_Chicago_IL_60632_M87183-80641,294900.0,"4608 S Avers Ave, Chicago, IL 60632",FOR_SALE,1073.0,2,2,41.809419,-87.720313
https://www.realtor.com/,7177472408,https://www.realtor.com/realestateandhomes-detail/5834-S-Nordica-Ave_Chicago_IL_60638_M71774-72408,399900.0,"5834 S Nordica Ave, Chicago, IL 60638",FOR_SALE,1300.0,3,2,41.785552,-87.797852
https://www.realtor.com/,8633337314,https://www.realtor.com/realestateandhomes-detail/5131-N-Neenah-Ave_Chicago_IL_60656_M86333-37314,460000.0,"5131 N Neenah Ave, Chicago, IL 60656",FOR_SALE,1289.0,3,3,41.974759,-87.789966
https://www.realtor.com/,7015097695,https://www.realtor.com/realestateandhomes-detail/9655-S-Seeley-Ave_Chicago_IL_60643_M70150-97695,495000.0,"9655 S Seeley Ave, Chicago, IL 60643",FOR_SALE,2090.0,3,2,41.717584,-87.673139
https://www.realtor.com/,8909009938,https://www.realtor.com/realestateandhomes-detail/4345-N-Kildare-Ave_Chicago_IL_60641_M89090-09938,600000.0,"4345 N Kildare Ave, Chicago, IL 60641",FOR_SALE,1439.0,3,2.5,41.960367,-87.735233
https://www.realtor.com/,7699121071,https://www.realtor.com/realestateandhomes-detail/10012-S-Fairfield-Ave_Chicago_IL_60655_M76991-21071,350000.0,"10012 S Fairfield Ave, Chicago, IL 60655",FOR_SALE,1177.0,3,2,41.711326,-87.690765
https://www.realtor.com/,7031873483,https://www.realtor.com/realestateandhomes-detail/13322-S-Avenue-O_Chicago_IL_60633_M70318-73483,254900.0,"13322 S Avenue O, Chicago, IL 60633",FOR_SALE,1337.0,3,2,41.652991,-87.540237
https://www.realtor.com/,7527991827,https://www.realtor.com/realestateandhomes-detail/5942-N-Kolmar-Ave_Chicago_IL_60646_M75279-91827,1295000.0,"5942 N Kolmar Ave, Chicago, IL 60646",FOR_SALE,3700.0,4,3.5+,41.989394,-87.742339
https://www.realtor.com/,7548772069,https://www.realtor.com/realestateandhomes-detail/1735-N-Latrobe-Ave_Chicago_IL_60639_M75487-72069,99000.0,"1735 N Latrobe Ave, Chicago, IL 60639",FOR_SALE,1000.0,3,2,41.912357,-87.756636
https://www.realtor.com/,8124328624,https://www.realtor.com/realestateandhomes-detail/11430-S-Artesian-Ave_Chicago_IL_60655_M81243-28624,224900.0,"11430 S Artesian Ave, Chicago, IL 60655",FOR_SALE,1300.0,3,2,41.685399,-87.682565
https://www.realtor.com/,8740261344,https://www.realtor.com/realestateandhomes-detail/9106-S-Winchester-Ave_Chicago_IL_60643_M87402-61344,564000.0,"9106 S Winchester Ave, Chicago, IL 60643",FOR_SALE,2581.0,5,3.5,41.728092,-87.671842
https://www.realtor.com/,7590388739,https://www.realtor.com/realestateandhomes-detail/5505-N-Winthrop-Ave-Apt-2_Chicago_IL_60640_M75903-88739,145000.0,"5505 N Winthrop Ave Unit I2, Chicago, IL 60640",FOR_SALE,800.0,1,1,41.98205,-87.657798
https://www.realtor.com/,7022780593,https://www.realtor.com/realestateandhomes-detail/12812-S-Exchange-Ave_Chicago_IL_60633_M70227-80593,229900.0,"12812 S Exchange Ave, Chicago, IL 60633",FOR_SALE,1234.0,3,1,41.662353,-87.552335
https://www.realtor.com/,8584388239,https://www.realtor.com/realestateandhomes-detail/7316-W-Clarence-Ave_Chicago_IL_60631_M85843-88239,339995.0,"7316 W Clarence Ave, Chicago, IL 60631",FOR_SALE,1400.0,2,2,41.994758,-87.811126
https://www.realtor.com/,8438495040,https://www.realtor.com/realestateandhomes-detail/6835-S-Bennett-Ave_Chicago_IL_60649_M84384-95040,1650000.0,"6835 S Bennett Ave, Chicago, IL 60649",FOR_SALE,4940.0,4,2.5+,41.770652,-87.578507
https://www.realtor.com/,8706057322,https://www.realtor.com/realestateandhomes-detail/10222-S-Aberdeen-St_Chicago_IL_60643_M87060-57322,100000.0,"10222 S Aberdeen St, Chicago, IL 60643",FOR_SALE,1200.0,5,2.5,41.707903,-87.650523
https://www.realtor.com/,8136147002,https://www.realtor.com/realestateandhomes-detail/1730-E-83rd-Pl_Chicago_IL_60617_M81361-47002,49900.0,"1730 E 83rd Pl, Chicago, IL 60617",FOR_SALE,1038.0,2,1,41.743608,-87.581651
https://www.realtor.com/,7069172504,https://www.realtor.com/realestateandhomes-detail/8401-S-Honore-St_Chicago_IL_60620_M70691-72504,270000.0,"8401 S Honore St, Chicago, IL 60620",FOR_SALE,1638.0,5,2,41.741054,-87.66893
https://www.realtor.com/,8791385845,https://www.realtor.com/realestateandhomes-detail/9230-S-Pleasant-Ave_Chicago_IL_60643_M87913-85845,1175000.0,"9230 S Pleasant Ave, Chicago, IL 60643",FOR_SALE,5500.0,5,3.5+,41.725619,-87.670207
https://www.realtor.com/,7605821152,https://www.realtor.com/realestateandhomes-detail/4130-N-Kolmar-Ave_Chicago_IL_60641_M76058-21152,315000.0,"4130 N Kolmar Ave, Chicago, IL 60641",FOR_SALE,1300.0,3,1,41.95625,-87.742183
https://www.realtor.com/,8516768743,https://www.realtor.com/realestateandhomes-detail/5440-W-Cortez-St_Chicago_IL_60651_M85167-68743,185000.0,"5440 W Cortez St, Chicago, IL 60651",FOR_SALE,2000.0,3,2.5,41.8997,-87.762515
https://www.realtor.com/,7980039266,https://www.realtor.com/realestateandhomes-detail/1226-W-111th-Pl_Chicago_IL_60643_M79800-39266,245000.0,"1226 W 111th Pl, Chicago, IL 60643",FOR_SALE,1558.0,4,2.5+,41.691579,-87.653168
https://www.realtor.com/,8564966202,https://www.realtor.com/realestateandhomes-detail/7122-S-Champlain-Ave_Chicago_IL_60619_M85649-66202,105000.0,"7122 S Champlain Ave, Chicago, IL 60619",FOR_SALE,2500.0,5,2,41.765076,-87.609556
https://www.realtor.com/,7456482519,https://www.realtor.com/realestateandhomes-detail/10525-S-Talman-Ave_Chicago_IL_60655_M74564-82519,539000.0,"10525 S Talman Ave, Chicago, IL 60655",FOR_SALE,1800.0,3,1.5,41.701915,-87.687806
https://www.realtor.com/,8648347785,https://www.realtor.com/realestateandhomes-detail/10816-S-Trumbull-Ave_Chicago_IL_60655_M86483-47785,289900.0,"10816 S Trumbull Ave, Chicago, IL 60655",FOR_SALE,1152.0,2,2,41.696376,-87.707408
https://www.realtor.com/,8528897141,https://www.realtor.com/realestateandhomes-detail/10804-S-Ridgeway-Ave_Chicago_IL_60655_M85288-97141,585000.0,"10804 S Ridgeway Ave, Chicago, IL 60655",FOR_SALE,2500.0,5,3,41.696579,-87.714786
https://www.realtor.com/,7736315630,https://www.realtor.com/realestateandhomes-detail/11367-S-Millard-Ave_Chicago_IL_60655_M77363-15630,345000.0,"11367 S Millard Ave, Chicago, IL 60655",FOR_SALE,1156.0,3,2,41.685901,-87.71121
https://www.realtor.com/,7644634227,https://www.realtor.com/realestateandhomes-detail/5018-N-Tripp-Ave_Chicago_IL_60630_M76446-34227,399900.0,"5018 N Tripp Ave, Chicago, IL 60630",FOR_SALE,1780.0,3,2,41.972438,-87.73467
https://www.realtor.com/,7727347806,https://www.realtor.com/realestateandhomes-detail/3422-W-85th-Pl_Chicago_IL_60652_M77273-47806,359900.0,"3422 W 85th Pl, Chicago, IL 60652",FOR_SALE,1860.0,3,2.5,41.738157,-87.707887
https://www.realtor.com/,7857767263,https://www.realtor.com/realestateandhomes-detail/8134-S-Washtenaw-Ave_Chicago_IL_60652_M78577-67263,215000.0,"8134 S Washtenaw Ave, Chicago, IL 60652",FOR_SALE,1850.0,4,2.5,41.74529,-87.690417
https://www.realtor.com/,7687763182,https://www.realtor.com/realestateandhomes-detail/6621-S-University-Ave_Chicago_IL_60637_M76877-63182,525000.0,"6621 S University Ave, Chicago, IL 60637",FOR_SALE,3100.0,3,4,41.774301,-87.598143
https://www.realtor.com/,8714184814,https://www.realtor.com/realestateandhomes-detail/4414-N-Monitor-Ave_Chicago_IL_60630_M87141-84814,579999.0,"4414 N Monitor Ave, Chicago, IL 60630",FOR_SALE,1450.0,4,4,41.960913,-87.77372
https://www.realtor.com/,8520368315,https://www.realtor.com/realestateandhomes-detail/9537-S-Leavitt-St_Chicago_IL_60643_M85203-68315,669999.0,"9537 S Leavitt St, Chicago, IL 60643",FOR_SALE,3188.0,4,3.5,41.719907,-87.676841
https://www.realtor.com/,7101542087,https://www.realtor.com/realestateandhomes-detail/9924-S-Longwood-Dr_Chicago_IL_60643_M71015-42087,899873.0,"9924 S Longwood Dr, Chicago, IL 60643",FOR_SALE,4724.0,5,4.5,41.71292,-87.669421
https://www.realtor.com/,8912516086,https://www.realtor.com/realestateandhomes-detail/3621-N-Richmond-St_Chicago_IL_60618_M89125-16086,1050000.0,"3621 N Richmond St, Chicago, IL 60618",FOR_SALE,2900.0,3,4,41.947321,-87.701385
https://www.realtor.com/,8650226307,https://www.realtor.com/realestateandhomes-detail/1521-N-State-Pkwy_Chicago_IL_60610_M86502-26307,7700000.0,"1521 N State Pkwy, Chicago, IL 60610",FOR_SALE,9700.0,6,6.5+,41.910183,-87.628462
https://www.realtor.com/,8537870193,https://www.realtor.com/realestateandhomes-detail/1516-W-Highland-Ave_Chicago_IL_60660_M85378-70193,974900.0,"1516 W Highland Ave, Chicago, IL 60660",FOR_SALE,2700.0,4,3.5,41.997505,-87.668534
https://www.realtor.com/,9998534338,https://www.realtor.com/realestateandhomes-detail/2733-N-Pulaski-Rd_Chicago_IL_60639_M99985-34338,3500000.0,"2733 N Pulaski Rd, Chicago, IL 60639",FOR_SALE,7000.0,4,3.5,41.931019,-87.726601
https://www.realtor.com/,7181364513,https://www.realtor.com/realestateandhomes-detail/7420-S-Luella-Ave_Chicago_IL_60649_M71813-64513,325000.0,"7420 S Luella Ave, Chicago, IL 60649",FOR_SALE,2490.0,3,4,41.760058,-87.570387
https://www.realtor.com/,7724517397,https://www.realtor.com/realestateandhomes-detail/1464-N-Paulina-St_Chicago_IL_60622_M77245-17397,1190000.0,"1464 N Paulina St, Chicago, IL 60622",FOR_SALE,3654.0,5,3.5,41.908767,-87.670391
https://www.realtor.com/,8252701756,https://www.realtor.com/realestateandhomes-detail/6241-N-Kilpatrick-Ave_Chicago_IL_60646_M82527-01756,1595000.0,"6241 N Kilpatrick Ave, Chicago, IL 60646",FOR_SALE,3748.0,4,4.5,41.994129,-87.742926
https://www.realtor.com/,8754573575,https://www.realtor.com/realestateandhomes-detail/4040-W-Rosemont-Ave_Chicago_IL_60646_M87545-73575,495000.0,"4040 W Rosemont Ave, Chicago, IL 60646",FOR_SALE,2107.0,3,2,41.995496,-87.73046
https://www.realtor.com/,7513031401,https://www.realtor.com/realestateandhomes-detail/7124-S-Woodlawn-Ave_Chicago_IL_60619_M75130-31401,345000.0,"7124 S Woodlawn Ave, Chicago, IL 60619",FOR_SALE,3100.0,3,3,41.765205,-87.596196
https://www.realtor.com/,9915577036,https://www.realtor.com/realestateandhomes-detail/2237-E-70th-Pl-Apt-3_Chicago_IL_60649_M99155-77036,39900.0,"2237 E 70th Pl Apt 3, Chicago, IL 60649",FOR_SALE,1400.0,3,2,41.766981,-87.569961
https://www.realtor.com/,8144753478,https://www.realtor.com/realestateandhomes-detail/1423-N-California-Ave_Chicago_IL_60622_M81447-53478,935000.0,"1423 N California Ave, Chicago, IL 60622",FOR_SALE,4000.0,3,3.5,41.907311,-87.696587
https://www.realtor.com/,7753968315,https://www.realtor.com/realestateandhomes-detail/457-E-91st-St_Chicago_IL_60619_M77539-68315,264500.0,"457 E 91st St, Chicago, IL 60619",FOR_SALE,1882.0,3,1.5,41.728971,-87.612083
https://www.realtor.com/,8522505772,https://www.realtor.com/realestateandhomes-detail/4927-S-Dorchester-Ave_Chicago_IL_60615_M85225-05772,1600000.0,"4927 S Dorchester Ave, Chicago, IL 60615",FOR_SALE,3500.0,6,4.5,41.805231,-87.591505
https://www.realtor.com/,7837690366,https://www.realtor.com/realestateandhomes-detail/2000-E-93rd-St_Chicago_IL_60617_M78376-90366,225000.0,"2000 E 93rd St, Chicago, IL 60617",FOR_SALE,1600.0,3,1.5,41.726397,-87.575275
https://www.realtor.com/,7363755408,https://www.realtor.com/realestateandhomes-detail/6417-S-Claremont-Ave_Chicago_IL_60636_M73637-55408,219900.0,"6417 S Claremont Ave, Chicago, IL 60636",FOR_SALE,1700.0,5,2,41.776879,-87.681879
https://www.realtor.com/,8211417389,https://www.realtor.com/realestateandhomes-detail/2450-N-Central-Park-Ave_Chicago_IL_60647_M82114-17389,998000.0,"2450-2448 N Central Park Ave, Chicago, IL 60647",FOR_SALE,2250.0,2,2,41.926149,-87.717388
https://www.realtor.com/,7386580018,https://www.realtor.com/realestateandhomes-detail/7411-N-Oconto-Ave_Chicago_IL_60631_M73865-80018,475000.0,"7411 N Oconto Ave, Chicago, IL 60631",FOR_SALE,2020.0,3,2,42.015731,-87.807455
https://www.realtor.com/,8835234745,https://www.realtor.com/realestateandhomes-detail/6131-W-Cornelia-Ave_Chicago_IL_60634_M88352-34745,439000.0,"6131 W Cornelia Ave, Chicago, IL 60634",FOR_SALE,2300.0,4,2,41.943639,-87.780141
https://www.realtor.com/,9541873514,https://www.realtor.com/realestateandhomes-detail/6346-S-Kenwood-Ave_Chicago_IL_60637_M95418-73514,879000.0,"6346 S Kenwood Ave, Chicago, IL 60637",FOR_SALE,3200.0,5,3.5,41.77916,-87.593491
https://www.realtor.com/,7404567209,https://www.realtor.com/realestateandhomes-detail/12213-S-State-St_Chicago_IL_60628_M74045-67209,175000.0,"12213 S State St, Chicago, IL 60628",FOR_SALE,1040.0,3,1,41.672137,-87.622108
https://www.realtor.com/,7910329024,https://www.realtor.com/realestateandhomes-detail/1249-S-Keeler-Ave_Chicago_IL_60623_M79103-29024,125000.0,"1249 S Keeler Ave, Chicago, IL 60623",FOR_SALE,714.0,4,1,41.864681,-87.729673
https://www.realtor.com/,7224378857,https://www.realtor.com/realestateandhomes-detail/7255-S-Troy-St_Chicago_IL_60629_M72243-78857,265000.0,"7255 S Troy St, Chicago, IL 60629",FOR_SALE,1345.0,2,1,41.760971,-87.701137
https://www.realtor.com/,7289550693,https://www.realtor.com/realestateandhomes-detail/3315-S-Carpenter-St_Chicago_IL_60608_M72895-50693,435000.0,"3315 S Carpenter St, Chicago, IL 60608",FOR_SALE,1400.0,3,1,41.833832,-87.65191
https://www.realtor.com/,7336184908,https://www.realtor.com/realestateandhomes-detail/7951-S-Loomis-Blvd_Chicago_IL_60620_M73361-84908,110000.0,"7951 S Loomis Blvd, Chicago, IL 60620",FOR_SALE,1636.0,4,1,41.74892,-87.658203
https://www.realtor.com/,8900187173,https://www.realtor.com/realestateandhomes-detail/10616-S-Green-Bay-Ave_Chicago_IL_60617_M89001-87173,220000.0,"10616 S Green Bay Ave, Chicago, IL 60617",FOR_SALE,890.0,3,2,41.702166,-87.541695
https://www.realtor.com/,7659136641,https://www.realtor.com/realestateandhomes-detail/6214-S-Kenneth-Ave_Chicago_IL_60629_M76591-36641,369900.0,"6214 S Kenneth Ave, Chicago, IL 60629",FOR_SALE,1300.0,5,2,41.779823,-87.734134
https://www.realtor.com/,8900187173,https://www.realtor.com/realestateandhomes-detail/10616-S-Green-Bay-Ave_Chicago_IL_60617_M89001-87173,220000.0,"10616 S Green Bay Ave, Chicago, IL 60617",FOR_SALE,840.0,3,2,41.702166,-87.541695
https://www.realtor.com/,8485881574,https://www.realtor.com/realestateandhomes-detail/5833-S-Nashville-Ave_Chicago_IL_60638_M84858-81574,769900.0,"5833 S Nashville Ave, Chicago, IL 60638",FOR_SALE,2776.0,4,3.5,41.785728,-87.786086
https://www.realtor.com/,8376637428,https://www.realtor.com/realestateandhomes-detail/4333-W-55th-St_Chicago_IL_60632_M83766-37428,279900.0,"4333 W 55th St, Chicago, IL 60632",FOR_SALE,1180.0,3,1.5,41.792854,-87.731903
https://www.realtor.com/,8950143132,https://www.realtor.com/realestateandhomes-detail/9856-S-Seeley-Ave_Chicago_IL_60643_M89501-43132,469900.0,"9856 S Seeley Ave, Chicago, IL 60643",FOR_SALE,2300.0,4,2.5,41.713915,-87.673729
https://www.realtor.com/,9400164347,https://www.realtor.com/realestateandhomes-detail/7321-S-South-Shore-Dr-Apt-10C_Chicago_IL_60649_M94001-64347,165000.0,"7321 S South Shore Dr Ste 4B, Chicago, IL 60649",FOR_SALE,2000.0,3,2,41.763632,-87.559538
https://www.realtor.com/,9008118438,https://www.realtor.com/realestateandhomes-detail/8531-S-Kildare-Ave_Chicago_IL_60652_M90081-18438,315900.0,"8531 S Kildare Ave, Chicago, IL 60652",FOR_SALE,1110.0,3,2,41.737481,-87.728455
https://www.realtor.com/,8522602346,https://www.realtor.com/realestateandhomes-detail/9011-S-Dauphin-Ave_Chicago_IL_60619_M85226-02346,295000.0,"9011 S Dauphin Ave, Chicago, IL 60619",FOR_SALE,1296.0,3,2,41.730731,-87.602293
https://www.realtor.com/,7908659242,https://www.realtor.com/realestateandhomes-detail/741-W-93rd-St_Chicago_IL_60620_M79086-59242,259000.0,"741 W 93rd St, Chicago, IL 60620",FOR_SALE,1100.0,4,2,41.724873,-87.64253
https://www.realtor.com/,7974313090,https://www.realtor.com/realestateandhomes-detail/3954-W-Ontario-St_Chicago_IL_60624_M79743-13090,64000.0,"3954 W Ontario St, Chicago, IL 60624",FOR_SALE,1024.0,3,2,41.892491,-87.725634
https://www.realtor.com/,8395832902,https://www.realtor.com/realestateandhomes-detail/3845-S-Winchester-Ave_Chicago_IL_60609_M83958-32902,2500000.0,"3845 S Winchester Ave, Chicago, IL 60609",FOR_SALE,7400.0,3,3.5+,41.823653,-87.673535
https://www.realtor.com/,7461407921,https://www.realtor.com/realestateandhomes-detail/10854-S-Union-Ave_Chicago_IL_60628_M74614-07921,155000.0,"10854 S Union Ave, Chicago, IL 60628",FOR_SALE,1185.0,3,2.5,41.696253,-87.640427
https://www.realtor.com/,7091878222,https://www.realtor.com/realestateandhomes-detail/4800-S-Lake-Park-Ave-Apt-409_Chicago_IL_60615_M70918-78222,32000.0,"4800 S Lake Park Ave Unit 205A, Chicago, IL 60615",FOR_SALE,1250.0,2,1,41.808955,-87.591369
https://www.realtor.com/,8744262098,https://www.realtor.com/realestateandhomes-detail/7316-S-Paxton-Ave_Chicago_IL_60649_M87442-62098,375000.0,"7316 S Paxton Ave, Chicago, IL 60649",FOR_SALE,2106.0,4,1.5,41.76197,-87.57164
https://www.realtor.com/,7688032267,https://www.realtor.com/realestateandhomes-detail/7113-W-73rd-Pl_Chicago_IL_60638_M76880-32267,250000.0,"7113 W 73rd Pl, Nottingham Park, IL 60638",FOR_SALE,2300.0,4,2,41.757908,-87.798506
https://www.realtor.com/,9958460212,https://www.realtor.com/realestateandhomes-detail/1036-S-Monitor-Ave_Chicago_IL_60644_M99584-60212,390000.0,"1036 S Monitor Ave, Chicago, IL 60644",FOR_SALE,1606.0,4,2,41.868047,-87.770888
https://www.realtor.com/,7656706834,https://www.realtor.com/realestateandhomes-detail/2026-N-Kilbourn-Ave_Chicago_IL_60639_M76567-06834,429999.0,"2026 N Kilbourn Ave, Chicago, IL 60639",FOR_SALE,2121.0,2,3,41.917869,-87.739159
https://www.realtor.com/,8884748404,https://www.realtor.com/realestateandhomes-detail/9030-S-Ellis-Ave_Chicago_IL_60619_M88847-48404,85000.0,"9030 S Ellis Ave, Chicago, IL 60619",FOR_SALE,966.0,3,2,41.730319,-87.600173
https://www.realtor.com/,8485858830,https://www.realtor.com/realestateandhomes-detail/1409-W-71st-Pl_Chicago_IL_60636_M84858-58830,225000.0,"1409 W 71st Pl, Chicago, IL 60636",FOR_SALE,1056.0,5,2,41.763806,-87.659365
https://www.realtor.com/,7030415924,https://www.realtor.com/realestateandhomes-detail/8405-S-Hamilton-Ave_Chicago_IL_60620_M70304-15924,135000.0,"8405 S Hamilton Ave, Chicago, IL 60620",FOR_SALE,935.0,2,1,41.740871,-87.676213
https://www.realtor.com/,8621459445,https://www.realtor.com/realestateandhomes-detail/10342-S-Corliss-Ave_Chicago_IL_60628_M86214-59445,225000.0,"10342 S Corliss Ave, Chicago, IL 60628",FOR_SALE,1040.0,3,2,41.706191,-87.604351
https://www.realtor.com/,8217467587,https://www.realtor.com/realestateandhomes-detail/406-E-90th-St_Chicago_IL_60619_M82174-67587,239999.0,"406 E 90th St, Chicago, IL 60619",FOR_SALE,3050.0,3,2,41.731307,-87.61404
https://www.realtor.com/,7423105013,https://www.realtor.com/realestateandhomes-detail/5414-W-Eddy-St_Chicago_IL_60641_M74231-05013,329000.0,"5414 W Eddy St, Chicago, IL 60641",FOR_SALE,1600.0,2,2,41.945281,-87.762502
https://www.realtor.com/,7481876554,https://www.realtor.com/realestateandhomes-detail/5705-W-Henderson-St_Chicago_IL_60634_M74818-76554,265000.0,"5705 W Henderson St, Chicago, IL 60634",FOR_SALE,1600.0,3,1,41.941016,-87.769365
https://www.realtor.com/,8302663829,https://www.realtor.com/realestateandhomes-detail/13527-S-Mackinaw-Ave_Chicago_IL_60633_M83026-63829,169900.0,"13527 S Mackinaw Ave, Chicago, IL 60633",FOR_SALE,1594.0,3,1.5,41.649191,-87.542058
https://www.realtor.com/,7821729874,https://www.realtor.com/realestateandhomes-detail/3228-S-Avers-Ave_Chicago_IL_60623_M78217-29874,124900.0,"3228 S Avers Ave, Chicago, IL 60623",FOR_SALE,943.0,2,2,41.834246,-87.720977
https://www.realtor.com/,7857473507,https://www.realtor.com/realestateandhomes-detail/11458-S-Avenue-J_Chicago_IL_60617_M78574-73507,261000.0,"11458 S Avenue J, Chicago, IL 60617",FOR_SALE,2400.0,3,2.5,41.686534,-87.53441
https://www.realtor.com/,7010777995,https://www.realtor.com/realestateandhomes-detail/536-E-115th-St_Chicago_IL_60628_M70107-77995,150000.0,"536 E 115th St, Chicago, IL 60628",FOR_SALE,1200.0,3,2,41.685694,-87.610012
https://www.realtor.com/,7219114393,https://www.realtor.com/realestateandhomes-detail/7655-W-Palatine-Ave_Chicago_IL_60631_M72191-14393,429000.0,"7655 W Palatine Ave, Chicago, IL 60631",FOR_SALE,3600.0,3,2.5,41.994789,-87.818828
https://www.realtor.com/,8361424453,https://www.realtor.com/realestateandhomes-detail/1348-W-107th-St_Chicago_IL_60643_M83614-24453,250000.0,"1348 W 107th St, Chicago, IL 60643",FOR_SALE,1658.0,3,2.5,41.699744,-87.656798
https://www.realtor.com/,8687327961,https://www.realtor.com/realestateandhomes-detail/9614-S-Van-Vlissingen-Rd_Chicago_IL_60617_M86873-27961,179500.0,"9614 S Van Vlissingen Rd, Chicago, IL 60617",FOR_SALE,1134.0,3,1,41.720058,-87.578842
https://www.realtor.com/,7080736318,https://www.realtor.com/realestateandhomes-detail/9818-S-Peoria-St_Chicago_IL_60643_M70807-36318,100000.0,"9818 S Peoria St, Chicago, IL 60643",FOR_SALE,1200.0,2,1,41.715334,-87.645833
https://www.realtor.com/,7311698738,https://www.realtor.com/realestateandhomes-detail/1618-N-Long-Ave_Chicago_IL_60639_M73116-98738,209000.0,"1618 N Long Ave, Chicago, IL 60639",FOR_SALE,1225.0,2,1,41.910076,-87.760925
https://www.realtor.com/,7374664179,https://www.realtor.com/realestateandhomes-detail/10917-S-Wood-St_Chicago_IL_60643_M73746-64179,157500.0,"10917 S Wood St, Chicago, IL 60643",FOR_SALE,1127.0,3,2,41.695114,-87.665991
https://www.realtor.com/,8386017408,https://www.realtor.com/realestateandhomes-detail/10606-S-Central-Park-Ave_Chicago_IL_60655_M83860-17408,299900.0,"10606 S Central Park Ave, Chicago, IL 60655",FOR_SALE,1000.0,3,2,41.700304,-87.711307
https://www.realtor.com/,7210835911,https://www.realtor.com/realestateandhomes-detail/6218-S-Kenneth-Ave_Chicago_IL_60629_M72108-35911,270000.0,"6218 S Kenneth Ave, Chicago, IL 60629",FOR_SALE,1750.0,5,2.5,41.779736,-87.734131
https://www.realtor.com/,7495168938,https://www.realtor.com/realestateandhomes-detail/6746-S-Wood-St_Chicago_IL_60636_M74951-68938,209900.0,"6746 S Wood St, Chicago, IL 60636",FOR_SALE,1600.0,3,2,41.770725,-87.669185
https://www.realtor.com/,7659496002,https://www.realtor.com/realestateandhomes-detail/11206-S-Christiana-Ave_Chicago_IL_60655_M76594-96002,359000.0,"11206 S Christiana Ave, Chicago, IL 60655",FOR_SALE,1920.0,5,3,41.689439,-87.704758
https://www.realtor.com/,7638186180,https://www.realtor.com/realestateandhomes-detail/11519-S-Avenue-H_Chicago_IL_60617_M76381-86180,394900.0,"11519 S Avenue H, Chicago, IL 60617",FOR_SALE,2432.0,3,2.5,41.685801,-87.532507
https://www.realtor.com/,7265792691,https://www.realtor.com/realestateandhomes-detail/5842-S-Nagle-Ave_Chicago_IL_60638_M72657-92691,517999.0,"5842 S Nagle Ave, Chicago, IL 60638",FOR_SALE,2166.0,4,2.5,41.785539,-87.78313
https://www.realtor.com/,8617366489,https://www.realtor.com/realestateandhomes-detail/10701-S-Sawyer-Ave_Chicago_IL_60655_M86173-66489,330000.0,"10701 S Sawyer Ave, Chicago, IL 60655",FOR_SALE,990.0,2,2,41.69873,-87.701941
https://www.realtor.com/,8655528740,https://www.realtor.com/realestateandhomes-detail/2876-W-84th-St_Chicago_IL_60652_M86555-28740,280000.0,"2876 W 84th St, Chicago, IL 60652",FOR_SALE,1226.0,3,2,41.741145,-87.695327
https://www.realtor.com/,8175156221,https://www.realtor.com/realestateandhomes-detail/7105-W-64th-St_Chicago_IL_60638_M81751-56221,379000.0,"7105 W 64th St, Chicago, IL 60638",FOR_SALE,1080.0,3,2.5,41.775324,-87.798632
https://www.realtor.com/,8976820655,https://www.realtor.com/realestateandhomes-detail/1848-N-Howe-St_Chicago_IL_60614_M89768-20655,4780000.0,"1848 N Howe St, Chicago, IL 60614",FOR_SALE,6450.0,5,5.5+,41.915328,-87.645138
https://www.realtor.com/,8826161451,https://www.realtor.com/realestateandhomes-detail/8632-W-Leland-Ave_Chicago_IL_60656_M88261-61451,524900.0,"8632 W Leland Ave, Chicago, IL 60656",FOR_SALE,1484.0,3,2,41.965329,-87.843061
https://www.realtor.com/,7422602886,https://www.realtor.com/realestateandhomes-detail/6240-N-Lundy-Ave_Chicago_IL_60646_M74226-02886,1299000.0,"6240 N Lundy Ave, Chicago, IL 60646",FOR_SALE,4251.0,4,3.5+,41.994951,-87.767909
https://www.realtor.com/,7433959369,https://www.realtor.com/realestateandhomes-detail/5229-S-Normandy-Ave_Chicago_IL_60638_M74339-59369,324900.0,"5229 S Normandy Ave, Chicago, IL 60638",FOR_SALE,1623.0,4,1,41.796848,-87.788902
https://www.realtor.com/,8396212837,https://www.realtor.com/realestateandhomes-detail/2236-W-Ainslie-St_Chicago_IL_60625_M83962-12837,2595000.0,"2236 W Ainslie Ave, Chicago, IL 60625",FOR_SALE,5000.0,4,4.5,41.970742,-87.685605
https://www.realtor.com/,7100060895,https://www.realtor.com/realestateandhomes-detail/11227-S-Spaulding-Ave_Chicago_IL_60655_M71000-60895,548900.0,"11227 S Spaulding Ave, Chicago, IL 60655",FOR_SALE,2419.0,4,4,41.688896,-87.702812
https://www.realtor.com/,7588824031,https://www.realtor.com/realestateandhomes-detail/5745-S-Nashville-Ave_Chicago_IL_60638_M75888-24031,550000.0,"5745 S Nashville Ave, Chicago, IL 60638",FOR_SALE,2711.0,3,2.5,41.787238,-87.786142
https://www.realtor.com/,8925017847,https://www.realtor.com/realestateandhomes-detail/5304-N-Moody-Ave_Chicago_IL_60630_M89250-17847,425000.0,"5304 N Moody Ave, Chicago, IL 60630",FOR_SALE,1258.0,3,2,41.977748,-87.782693
https://www.realtor.com/,7914141188,https://www.realtor.com/realestateandhomes-detail/4901-S-Keating-Ave_Chicago_IL_60632_M79141-41188,240000.0,"4901 S Keating Ave, Chicago, IL 60632",FOR_SALE,1100.0,3,1.5,41.803866,-87.74148
https://www.realtor.com/,7571336154,https://www.realtor.com/realestateandhomes-detail/11009-S-Lawndale-Ave_Chicago_IL_60655_M75713-36154,370000.0,"11009 S Lawndale Ave, Chicago, IL 60655",FOR_SALE,1201.0,3,2,41.692864,-87.712764
https://www.realtor.com/,7865875494,https://www.realtor.com/realestateandhomes-detail/401-W-Dickens-Ave_Chicago_IL_60614_M78658-75494,6590000.0,"401 W Dickens Ave, Chicago, IL 60614",FOR_SALE,7252.0,4,4.5+,41.919938,-87.639136
https://www.realtor.com/,8489251253,https://www.realtor.com/realestateandhomes-detail/6922-S-Euclid-Ave_Chicago_IL_60649_M84892-51253,449900.0,"6922 S Euclid Ave, Chicago, IL 60649",FOR_SALE,3080.0,4,2.5+,41.769079,-87.577974
https://www.realtor.com/,8825052735,https://www.realtor.com/realestateandhomes-detail/1215-E-93rd-St_Chicago_IL_60619_M88250-52735,159900.0,"1215 E 93rd St, Chicago, IL 60619",FOR_SALE,1615.0,3,3,41.725596,-87.594217
https://www.realtor.com/,8868178357,https://www.realtor.com/realestateandhomes-detail/5341-S-Tripp-Ave_Chicago_IL_60632_M88681-78357,179900.0,"5341 S Tripp Ave, Chicago, IL 60632",FOR_SALE,1131.0,3,2,41.795565,-87.728999
https://www.realtor.com/,7333151142,https://www.realtor.com/realestateandhomes-detail/10123-S-Luella-Ave_Chicago_IL_60617_M73331-51142,50000.0,"10123 S Luella Ave, Chicago, IL 60617",FOR_SALE,1200.0,3,1,41.710937,-87.567826
https://www.realtor.com/,7769388191,https://www.realtor.com/realestateandhomes-detail/11009-S-Avenue-G_Chicago_IL_60617_M77693-88191,289000.0,"11009 S Avenue G, Chicago, IL 60617",FOR_SALE,1600.0,4,2.5,41.695122,-87.531319
https://www.realtor.com/,8222648775,https://www.realtor.com/realestateandhomes-detail/9125-S-Bennett-Ave_Chicago_IL_60617_M82226-48775,850000.0,"9125 S Bennett Ave, Chicago, IL 60617",FOR_SALE,6696.0,7,6.5+,41.729151,-87.577607
https://www.realtor.com/,7579602376,https://www.realtor.com/realestateandhomes-detail/2937-N-Menard-Ave_Chicago_IL_60634_M75796-02376,309900.0,"2937 N Menard Ave, Chicago, IL 60634",FOR_SALE,1239.0,3,4,41.934158,-87.770857
https://www.realtor.com/,7117772368,https://www.realtor.com/realestateandhomes-detail/5639-S-New-England-Ave_Chicago_IL_60638_M71177-72368,519900.0,"5639 S New England Ave, Chicago, IL 60638",FOR_SALE,2245.0,4,3,41.789173,-87.793546
https://www.realtor.com/,8608496155,https://www.realtor.com/realestateandhomes-detail/3139-W-Jarlath-St_Chicago_IL_60645_M86084-96155,459000.0,"3139 W Jarlath St, Chicago, IL 60645",FOR_SALE,1713.0,3,1.5,42.012526,-87.708381
https://www.realtor.com/,8920418208,https://www.realtor.com/realestateandhomes-detail/7542-S-Merrill-Ave_Chicago_IL_60649_M89204-18208,100000.0,"7542 S Merrill Ave, Chicago, IL 60649",FOR_SALE,1032.0,3,2,41.757638,-87.572809
https://www.realtor.com/,8116375234,https://www.realtor.com/realestateandhomes-detail/7941-S-Kenneth-Ave_Chicago_IL_60652_M81163-75234,359000.0,"7941 S Kenneth Ave, Chicago, IL 60652",FOR_SALE,1800.0,4,3,41.748051,-87.732282
https://www.realtor.com/,7873522533,https://www.realtor.com/realestateandhomes-detail/8629-S-Union-Ave_Chicago_IL_60620_M78735-22533,99950.0,"8629 S Union Ave, Chicago, IL 60620",FOR_SALE,1056.0,4,2,41.736951,-87.640845
https://www.realtor.com/,7583995202,https://www.realtor.com/realestateandhomes-detail/9209-S-Hoyne-Ave_Chicago_IL_60643_M75839-95202,674900.0,"9209 S Hoyne Ave, Chicago, IL 60643",FOR_SALE,3489.0,5,3.5,41.726167,-87.6741
https://www.realtor.com/,8536512692,https://www.realtor.com/realestateandhomes-detail/10836-S-Ridgeway-Ave_Chicago_IL_60655_M85365-12692,398900.0,"10836 S Ridgeway Ave, Chicago, IL 60655",FOR_SALE,1523.0,2,1.5,41.695701,-87.714753
https://www.realtor.com/,7753087230,https://www.realtor.com/realestateandhomes-detail/7938-S-Throop-St_Chicago_IL_60620_M77530-87230,155000.0,"7938 S Throop St, Chicago, IL 60620",FOR_SALE,1656.0,4,2.5+,41.749297,-87.656483
https://www.realtor.com/,7361172166,https://www.realtor.com/realestateandhomes-detail/7243-W-Palatine-Ave_Chicago_IL_60631_M73611-72166,339900.0,"7243 W Palatine Ave, Chicago, IL 60631",FOR_SALE,1186.0,2,1,41.995138,-87.808511
https://www.realtor.com/,8193737405,https://www.realtor.com/realestateandhomes-detail/5018-S-Knox-Ave_Chicago_IL_60632_M81937-37405,279900.0,"5018 S Knox Ave, Chicago, IL 60632",FOR_SALE,1032.0,3,1,41.801564,-87.739672
https://www.realtor.com/,8927025652,https://www.realtor.com/realestateandhomes-detail/9816-S-Damen-Ave_Chicago_IL_60643_M89270-25652,549000.0,"9816 S Damen Ave, Chicago, IL 60643",FOR_SALE,2708.0,4,2.5,41.715043,-87.672551
https://www.realtor.com/,8552338122,https://www.realtor.com/realestateandhomes-detail/7204-S-Springfield-Ave_Chicago_IL_60629_M85523-38122,246000.0,"7204 S Springfield Ave, Chicago, IL 60629",FOR_SALE,1013.0,4,1,41.762082,-87.720231
https://www.realtor.com/,7060855901,https://www.realtor.com/realestateandhomes-detail/10218-S-Prospect-Ave_Chicago_IL_60643_M70608-55901,239999.0,"10218 S Prospect Ave, Chicago, IL 60643",FOR_SALE,1360.0,3,2,41.707656,-87.662646
https://www.realtor.com/,7935281830,https://www.realtor.com/realestateandhomes-detail/8521-W-Brodman-Ave_Chicago_IL_60656_M79352-81830,434900.0,"8521 W Brodman Ave, Chicago, IL 60656",FOR_SALE,1494.0,3,2,41.959592,-87.840321
https://www.realtor.com/,9565197998,https://www.realtor.com/realestateandhomes-detail/6030-S-Major-Ave_Chicago_IL_60638_M95651-97998,240000.0,"6030 S Major Ave, Chicago, IL 60638",FOR_SALE,778.0,2,1,41.782546,-87.764694
https://www.realtor.com/,8242122385,https://www.realtor.com/realestateandhomes-detail/5230-W-51st-St_Chicago_IL_60638_M82421-22385,200000.0,"5230 W 51st St, Chicago, IL 60638",FOR_SALE,1727.0,4,2,41.800428,-87.754249
https://www.realtor.com/,7994016959,https://www.realtor.com/realestateandhomes-detail/8359-S-Michigan-Ave_Chicago_IL_60619_M79940-16959,205000.0,"8359 S Michigan Ave, Chicago, IL 60619",FOR_SALE,1300.0,4,2,41.742017,-87.620662
https://www.realtor.com/,9683571667,https://www.realtor.com/realestateandhomes-detail/880-N-Lake-Shore-Dr-Apt-13H_Chicago_IL_60611_M96835-71667,129900.0,"880 N Lake Shore Dr Apt 13H, Chicago, IL 60611",FOR_SALE,750.0,1,1,41.89883,-87.618889
https://www.realtor.com/,7515204198,https://www.realtor.com/realestateandhomes-detail/3628-W-64th-St_Chicago_IL_60629_M75152-04198,315000.0,"3628 W 64th St, Chicago, IL 60629",FOR_SALE,1428.0,3,2.5,41.777224,-87.714147
https://www.realtor.com/,8941355370,https://www.realtor.com/realestateandhomes-detail/10307-S-California-Ave_Chicago_IL_60655_M89413-55370,519900.0,"10307 S California Ave, Chicago, IL 60655",FOR_SALE,2606.0,4,3,41.706021,-87.691021
https://www.realtor.com/,7332345628,https://www.realtor.com/realestateandhomes-detail/4719-N-Anthon-Ave_Chicago_IL_60656_M73323-45628,499000.0,"4719 N Anthon Ave, Chicago, IL 60656",FOR_SALE,1416.0,3,3,41.965705,-87.840429
https://www.realtor.com/,8273115788,https://www.realtor.com/realestateandhomes-detail/5117-S-Long-Ave_Chicago_IL_60638_M82731-15788,335000.0,"5117 S Long Ave, Chicago, IL 60638",FOR_SALE,1232.0,3,2,41.79958,-87.757257
https://www.realtor.com/,7762878024,https://www.realtor.com/realestateandhomes-detail/2023-W-108th-Pl_Chicago_IL_60643_M77628-78024,969000.0,"2023 W 108th Pl, Chicago, IL 60643",FOR_SALE,3118.0,4,3.5+,41.696448,-87.67248
https://www.realtor.com/,8563154692,https://www.realtor.com/realestateandhomes-detail/5125-S-Harding-Ave_Chicago_IL_60632_M85631-54692,304500.0,"5125 S Harding Ave, Chicago, IL 60632",FOR_SALE,1084.0,3,2,41.799763,-87.721765
https://www.realtor.com/,8170514425,https://www.realtor.com/realestateandhomes-detail/7801-S-Vernon-Ave_Chicago_IL_60619_M81705-14425,149900.0,"7801 S Vernon Ave, Chicago, IL 60619",FOR_SALE,1740.0,6,3,41.752841,-87.613407
https://www.realtor.com/,8644715319,https://www.realtor.com/realestateandhomes-detail/7522-S-Aberdeen-St_Chicago_IL_60620_M86447-15319,99900.0,"7522 S Aberdeen St, Chicago, IL 60620",FOR_SALE,1702.0,3,1,41.756888,-87.65183
https://www.realtor.com/,8253638479,https://www.realtor.com/realestateandhomes-detail/7049-N-McAlpin-Ave_Chicago_IL_60646_M82536-38479,625000.0,"7049 N McAlpin Ave, Chicago, IL 60646",FOR_SALE,3230.0,3,2,42.008914,-87.780064
https://www.realtor.com/,8748920341,https://www.realtor.com/realestateandhomes-detail/7336-S-Oglesby-Ave_Chicago_IL_60649_M87489-20341,369900.0,"7336 S Oglesby Ave, Chicago, IL 60649",FOR_SALE,1988.0,3,2.5,41.761488,-87.567986
https://www.realtor.com/,7487254741,https://www.realtor.com/realestateandhomes-detail/4116-W-70th-St_Chicago_IL_60629_M74872-54741,305000.0,"4116 W 70th St, Chicago, IL 60629",FOR_SALE,1344.0,3,2.5,41.766504,-87.725659
https://www.realtor.com/,7862842432,https://www.realtor.com/realestateandhomes-detail/325-W-Wellington-Ave_Chicago_IL_60657_M78628-42432,4995000.0,"325 W Wellington Ave, Chicago, IL 60657",FOR_SALE,14000.0,11,7.5+,41.936318,-87.637985
https://www.realtor.com/,8137469684,https://www.realtor.com/realestateandhomes-detail/2123-N-Sedgwick-St_Chicago_IL_60614_M81374-69684,1875000.0,"2123 N Sedgwick St, Chicago, IL 60614",FOR_SALE,3060.0,3,3.5,41.920891,-87.638546
https://www.realtor.com/,8244849311,https://www.realtor.com/realestateandhomes-detail/1714-N-Sayre-Ave_Chicago_IL_60707_M82448-49311,365000.0,"1714 N Sayre Ave, Chicago, IL 60707",FOR_SALE,3824.0,4,1.5+,41.911238,-87.800869
https://www.realtor.com/,8060714437,https://www.realtor.com/realestateandhomes-detail/5914-S-Menard-Ave_Chicago_IL_60638_M80607-14437,294000.0,"5914 S Menard Ave, Chicago, IL 60638",FOR_SALE,1040.0,3,1,41.784781,-87.76723
https://www.realtor.com/,7946775301,https://www.realtor.com/realestateandhomes-detail/10157-S-Avenue-J_Chicago_IL_60617_M79467-75301,98000.0,"10157 S Avenue J St, Chicago, IL 60617",FOR_SALE,1636.0,3,1,41.710275,-87.533741
https://www.realtor.com/,8676486904,https://www.realtor.com/realestateandhomes-detail/3129-N-Olcott-Ave_Chicago_IL_60707_M86764-86904,299900.0,"3129 N Olcott Ave, Chicago, IL 60707",FOR_SALE,1272.0,4,2,41.937041,-87.813676
https://www.realtor.com/,7613864115,https://www.realtor.com/realestateandhomes-detail/1835-W-107th-Pl_Chicago_IL_60643_M76138-64115,375000.0,"1835 W 107th Pl, Chicago, IL 60643",FOR_SALE,1547.0,3,2.5,41.697814,-87.668205
https://www.realtor.com/,7668846085,https://www.realtor.com/realestateandhomes-detail/5018-N-Monitor-Ave_Chicago_IL_60630_M76688-46085,375000.0,"5018 N Monitor Ave, Chicago, IL 60630",FOR_SALE,1460.0,3,2,41.972854,-87.774921
https://www.realtor.com/,8576069527,https://www.realtor.com/realestateandhomes-detail/8740-S-Escanaba-Ave_Chicago_IL_60617_M85760-69527,225000.0,"8740 S Escanaba Ave, Chicago, IL 60617",FOR_SALE,1851.0,6,2,41.736071,-87.554571
https://www.realtor.com/,8619286648,https://www.realtor.com/realestateandhomes-detail/8100-S-Euclid-Ave_Chicago_IL_60617_M86192-86648,265000.0,"8100 S Euclid Ave, Chicago, IL 60617",FOR_SALE,2900.0,4,3.5,41.747814,-87.57748
https://www.realtor.com/,8687455503,https://www.realtor.com/realestateandhomes-detail/9313-S-Hoyne-Ave_Chicago_IL_60643_M86874-55503,399500.0,"9313 S Hoyne Ave, Chicago, IL 60643",FOR_SALE,1408.0,3,1.5,41.724277,-87.674045
https://www.realtor.com/,8069967244,https://www.realtor.com/realestateandhomes-detail/6415-N-Le-Mai-Ave_Chicago_IL_60646_M80699-67244,699900.0,"6415 N Le Mai Ave, Chicago, IL 60646",FOR_SALE,4000.0,5,2.5,41.997684,-87.755826
https://www.realtor.com/,8684680857,https://www.realtor.com/realestateandhomes-detail/3812-W-82nd-Pl_Chicago_IL_60652_M86846-80857,274900.0,"3812 W 82nd Pl, Chicago, IL 60652",FOR_SALE,1330.0,3,2,41.743428,-87.717414
https://www.realtor.com/,8150602276,https://www.realtor.com/realestateandhomes-detail/4518-S-Drexel-Blvd_Chicago_IL_60653_M81506-02276,1800000.0,"4518 S Drexel Blvd, Chicago, IL 60653",FOR_SALE,7000.0,5,4.5,41.8126,-87.605025
https://www.realtor.com/,8001675308,https://www.realtor.com/realestateandhomes-detail/10513-S-Avenue-E_Chicago_IL_60617_M80016-75308,240000.0,"10513 S Avenue E, Chicago, IL 60617",FOR_SALE,1248.0,3,2,41.704088,-87.528891
https://www.realtor.com/,8110732852,https://www.realtor.com/realestateandhomes-detail/13339-S-Carondolet-Ave_Chicago_IL_60633_M81107-32852,189000.0,"13339 S Carondolet Ave, Chicago, IL 60633",FOR_SALE,1848.0,5,2,41.652529,-87.549234
https://www.realtor.com/,8756661323,https://www.realtor.com/realestateandhomes-detail/7251-W-Coyle-Ave_Chicago_IL_60631_M87566-61323,399900.0,"7251 W Coyle Ave, Chicago, IL 60631",FOR_SALE,1601.0,2,1.5,42.006874,-87.808643
https://www.realtor.com/,7263184075,https://www.realtor.com/realestateandhomes-detail/5602-S-Rutherford-Ave_Chicago_IL_60638_M72631-84075,790000.0,"5602 S Rutherford Ave, Chicago, IL 60638",FOR_SALE,2700.0,4,3.5,41.790138,-87.790631
https://www.realtor.com/,7889442794,https://www.realtor.com/realestateandhomes-detail/2623-N-Springfield-Ave_Chicago_IL_60647_M78894-42794,309900.0,"2623 N Springfield Ave, Chicago, IL 60647",FOR_SALE,1470.0,4,1.5,41.92896,-87.724095
https://www.realtor.com/,8385077201,https://www.realtor.com/realestateandhomes-detail/5716-S-Indiana-Ave_Chicago_IL_60637_M83850-77201,266000.0,"5716 S Indiana Ave, Chicago, IL 60637",FOR_SALE,3348.0,3,2,41.790558,-87.621215
https://www.realtor.com/,8802486021,https://www.realtor.com/realestateandhomes-detail/8513-S-Euclid-Ave_Chicago_IL_60617_M88024-86021,99000.0,"8513 S Euclid Ave, Chicago, IL 60617",FOR_SALE,1080.0,2,1,41.740291,-87.576639
https://www.realtor.com/,7462989538,https://www.realtor.com/realestateandhomes-detail/5110-S-Natoma-Ave_Chicago_IL_60638_M74629-89538,339000.0,"5110 S Natoma Ave, Chicago, IL 60638",FOR_SALE,1157.0,3,1.5,41.799182,-87.788466
https://www.realtor.com/,7028220565,https://www.realtor.com/realestateandhomes-detail/3729-W-Giddings-St_Chicago_IL_60625_M70282-20565,228000.0,"3729 W Giddings St, Chicago, IL 60625",FOR_SALE,1664.0,3,1,41.967136,-87.721836
https://www.realtor.com/,8361771466,https://www.realtor.com/realestateandhomes-detail/4806-S-Lavergne-Ave_Chicago_IL_60638_M83617-71466,284000.0,"4806 S Lavergne Ave, Chicago, IL 60638",FOR_SALE,1035.0,3,2,41.805432,-87.748342
https://www.realtor.com/,7855914819,https://www.realtor.com/realestateandhomes-detail/7341-W-Talcott-Ave_Chicago_IL_60631_M78559-14819,623826.0,"7341 W Talcott Ave, Chicago, IL 60631",FOR_SALE,3600.0,5,3,41.987405,-87.810948
https://www.realtor.com/,7693237424,https://www.realtor.com/realestateandhomes-detail/9100-S-Emerald-Ave_Chicago_IL_60620_M76932-37424,120000.0,"9100 S Emerald Ave, Chicago, IL 60620",FOR_SALE,1122.0,3,1.5,41.728641,-87.642547
https://www.realtor.com/,9582210396,https://www.realtor.com/realestateandhomes-detail/2727-N-Seminary-Ave_Chicago_IL_60614_M95822-10396,1450000.0,"2727 N Seminary Ave, Chicago, IL 60614",FOR_SALE,3232.0,3,2.5,41.931425,-87.655578
https://www.realtor.com/,8109515152,https://www.realtor.com/realestateandhomes-detail/4510-S-Springfield-Ave_Chicago_IL_60632_M81095-15152,249000.0,"4510 S Springfield Ave, Chicago, IL 60632",FOR_SALE,990.0,3,1,41.811152,-87.721616
https://www.realtor.com/,8820731292,https://www.realtor.com/realestateandhomes-detail/2840-N-Meade-Ave_Chicago_IL_60634_M88207-31292,300000.0,"2840 N Meade Ave, Chicago, IL 60634",FOR_SALE,1902.0,2,1,41.932303,-87.778787
https://www.realtor.com/,7369849688,https://www.realtor.com/realestateandhomes-detail/4710-W-83rd-Pl_Chicago_IL_60652_M73698-49688,339900.0,"4710 W 83rd Pl, Chicago, IL 60652",FOR_SALE,1180.0,3,2,41.74147,-87.738932
https://www.realtor.com/,7636533120,https://www.realtor.com/realestateandhomes-detail/9716-S-Vanderpoel-Ave_Chicago_IL_60643_M76365-33120,319873.0,"9716 S Vanderpoel Ave, Chicago, IL 60643",FOR_SALE,1732.0,3,2,41.717237,-87.666336
https://www.realtor.com/,7095806464,https://www.realtor.com/realestateandhomes-detail/5849-N-Mulligan-Ave_Chicago_IL_60646_M70958-06464,635000.0,"5849 N Mulligan Ave, Chicago, IL 60646",FOR_SALE,2507.0,5,4,41.987958,-87.786077
https://www.realtor.com/,7073141067,https://www.realtor.com/realestateandhomes-detail/3424-W-84th-Pl_Chicago_IL_60652_M70731-41067,105000.0,"3424 W 84th Pl, Chicago, IL 60652",FOR_SALE,1148.0,3,1,41.739923,-87.708059
https://www.realtor.com/,8216186023,https://www.realtor.com/realestateandhomes-detail/6640-S-Kedvale-Ave_Chicago_IL_60629_M82161-86023,479900.0,"6640 S Kedvale Ave, Chicago, IL 60629",FOR_SALE,1650.0,3,3,41.771941,-87.726595
https://www.realtor.com/,7166792979,https://www.realtor.com/realestateandhomes-detail/399-W-Fullerton-Pkwy_Chicago_IL_60614_M71667-92979,799000.0,"399 W Fullerton Pkwy Unit 2W, Chicago, IL 60614",FOR_SALE,3000.0,3,3,41.925299,-87.639067
https://www.realtor.com/,7030752020,https://www.realtor.com/realestateandhomes-detail/5121-S-New-England-Ave_Chicago_IL_60638_M70307-52020,424900.0,"5121 S New England Ave, Chicago, IL 60638",FOR_SALE,3100.0,3,2,41.798815,-87.79385
https://www.realtor.com/,7341365057,https://www.realtor.com/realestateandhomes-detail/6956-N-Odell-Ave_Chicago_IL_60631_M73413-65057,575000.0,"6956 N Odell Ave, Chicago, IL 60631",FOR_SALE,1900.0,4,1.5,42.007811,-87.811329
https://www.realtor.com/,7043885376,https://www.realtor.com/realestateandhomes-detail/5346-S-Spaulding-Ave_Chicago_IL_60632_M70438-85376,270000.0,"5346 S Spaulding Ave, Chicago, IL 60632",FOR_SALE,2255.0,5,2,41.79576,-87.706422
https://www.realtor.com/,7704927527,https://www.realtor.com/realestateandhomes-detail/726-W-Garfield-Blvd_Chicago_IL_60609_M77049-27527,450000.0,"726 W Garfield Blvd, Chicago, IL 60609",FOR_SALE,6270.0,12,5.5,41.794601,-87.643843
https://www.realtor.com/,7113914563,https://www.realtor.com/realestateandhomes-detail/1923-W-Chase-Ave_Chicago_IL_60626_M71139-14563,550000.0,"1923 W Chase Ave, Chicago, IL 60626",FOR_SALE,2462.0,3,2.5,42.013377,-87.679199
https://www.realtor.com/,8234619365,https://www.realtor.com/realestateandhomes-detail/339-W-Evergreen-Ave_Chicago_IL_60610_M82346-19365,1250000.0,"339 W Evergreen Ave, Chicago, IL 60610",FOR_SALE,3100.0,4,3.5,41.906356,-87.638089
https://www.realtor.com/,7085578904,https://www.realtor.com/realestateandhomes-detail/4836-S-Kildare-Ave_Chicago_IL_60632_M70855-78904,420000.0,"4836 S Kildare Ave, Chicago, IL 60632",FOR_SALE,1536.0,6,3,41.804824,-87.731192
https://www.realtor.com/,7820671203,https://www.realtor.com/realestateandhomes-detail/3434-W-71st-Pl_Chicago_IL_60629_M78206-71203,285000.0,"3434 W 71st Pl, Chicago, IL 60629",FOR_SALE,1405.0,3,1,41.763641,-87.709046
https://www.realtor.com/,8241565537,https://www.realtor.com/realestateandhomes-detail/5729-W-Pensacola-Ave_Chicago_IL_60634_M82415-65537,370000.0,"5729 W Pensacola Ave, Chicago, IL 60634",FOR_SALE,1500.0,3,1.5,41.959259,-87.770815
https://www.realtor.com/,8011588049,https://www.realtor.com/realestateandhomes-detail/10847-S-Avenue-E_Chicago_IL_60617_M80115-88049,405000.0,"10847 S Avenue E, Chicago, IL 60617",FOR_SALE,2170.0,4,3,41.697611,-87.5289
https://www.realtor.com/,7746591584,https://www.realtor.com/realestateandhomes-detail/7232-S-East-End-Ave_Chicago_IL_60649_M77465-91584,339900.0,"7232 S East End Ave, Chicago, IL 60649",FOR_SALE,1944.0,5,2,41.763277,-87.583924
https://www.realtor.com/,8913651734,https://www.realtor.com/realestateandhomes-detail/4234-N-Hazel-St_Chicago_IL_60613_M89136-51734,2150000.0,"4234 N Hazel St, Chicago, IL 60613",FOR_SALE,5140.0,6,4.5,41.959279,-87.652139
https://www.realtor.com/,7265638033,https://www.realtor.com/realestateandhomes-detail/4875-W-Bloomingdale-Ave_Chicago_IL_60639_M72656-38033,320000.0,"4875 W Bloomingdale Ave, Chicago, IL 60639",FOR_SALE,1438.0,4,2,41.912984,-87.748902
https://www.realtor.com/,7386449664,https://www.realtor.com/realestateandhomes-detail/11224-S-Fairfield-Ave_Chicago_IL_60655_M73864-49664,239900.0,"11224 S Fairfield Ave, Chicago, IL 60655",FOR_SALE,1056.0,3,2,41.689138,-87.690032
https://www.realtor.com/,7862101485,https://www.realtor.com/realestateandhomes-detail/4828-S-Kenwood-Ave_Chicago_IL_60615_M78621-01485,1695000.0,"4828 S Kenwood Ave, Chicago, IL 60615",FOR_SALE,3662.0,6,3.5,41.806877,-87.594012
https://www.realtor.com/,9995266533,https://www.realtor.com/realestateandhomes-detail/10324-S-Longwood-Dr_Chicago_IL_60643_M99952-66533,900000.0,"10324 S Longwood Dr, Chicago, IL 60643",FOR_SALE,7935.0,5,5.5+,41.705722,-87.671475
https://www.realtor.com/,8099780517,https://www.realtor.com/realestateandhomes-detail/2645-S-Komensky-Ave_Chicago_IL_60623_M80997-80517,245000.0,"2645 S Komensky Ave, Chicago, IL 60623",FOR_SALE,1071.0,3,1,41.842888,-87.72538
https://www.realtor.com/,8895406463,https://www.realtor.com/realestateandhomes-detail/838-E-90th-St_Chicago_IL_60619_M88954-06463,59050.0,"838 E 90th St, Chicago, IL 60619",FOR_SALE,2016.0,4,2,41.731413,-87.602947
https://www.realtor.com/,8778003703,https://www.realtor.com/realestateandhomes-detail/4857-N-Oak-Park-Ave_Chicago_IL_60656_M87780-03703,399999.0,"4857 N Oak Park Ave, Chicago, IL 60656",FOR_SALE,1180.0,3,2,41.970016,-87.796101
https://www.realtor.com/,8511486426,https://www.realtor.com/realestateandhomes-detail/3119-W-83rd-St_Chicago_IL_60652_M85114-86426,325000.0,"3119 W 83rd St, Chicago, IL 60652",FOR_SALE,1989.0,4,2,41.742282,-87.700105
https://www.realtor.com/,7835372877,https://www.realtor.com/realestateandhomes-detail/2139-W-115th-St_Chicago_IL_60643_M78353-72877,325000.0,"2139 W 115th St, Chicago, IL 60643",FOR_SALE,1850.0,4,2,41.683784,-87.675308
https://www.realtor.com/,8335120478,https://www.realtor.com/realestateandhomes-detail/11304-S-Avenue-H_Chicago_IL_60617_M83351-20478,292999.0,"11304 S Avenue H St, Chicago, IL 60617",FOR_SALE,1116.0,3,2,41.689786,-87.533218
https://www.realtor.com/,9737058895,https://www.realtor.com/realestateandhomes-detail/1530-N-State-Pkwy-8_Chicago_IL_60610_M97370-58895,999999.0,"1530 N State Pkwy Unit 8, Chicago, IL 60610",FOR_SALE,4350.0,4,5.5,41.91048,-87.629272
https://www.realtor.com/,7617930138,https://www.realtor.com/realestateandhomes-detail/7221-W-Coyle-Ave_Chicago_IL_60631_M76179-30138,535000.0,"7221 W Coyle Ave, Chicago, IL 60631",FOR_SALE,1944.0,3,2,42.006908,-87.807614
https://www.realtor.com/,7655286356,https://www.realtor.com/realestateandhomes-detail/3847-N-New-England-Ave_Chicago_IL_60634_M76552-86356,329900.0,"3847 N New England Ave, Chicago, IL 60634",FOR_SALE,1463.0,3,1,41.950431,-87.798258
https://www.realtor.com/,7091878222,https://www.realtor.com/realestateandhomes-detail/4800-S-Lake-Park-Ave-Apt-409_Chicago_IL_60615_M70918-78222,35000.0,"4800 S Lake Park Ave Unit 1306A, Chicago, IL 60615",FOR_SALE,1250.0,2,1,41.808955,-87.591369
https://www.realtor.com/,7340297980,https://www.realtor.com/realestateandhomes-detail/13322-S-Houston-Ave_Chicago_IL_60633_M73402-97980,269900.0,"13322 S Houston Ave, Chicago, IL 60633",FOR_SALE,1400.0,3,2,41.652939,-87.548734
https://www.realtor.com/,7341957461,https://www.realtor.com/realestateandhomes-detail/3659-N-Pioneer-Ave_Chicago_IL_60634_M73419-57461,329900.0,"3659 N Pioneer Ave, Chicago, IL 60634",FOR_SALE,1100.0,2,1.5,41.94657,-87.831239
https://www.realtor.com/,7835555538,https://www.realtor.com/realestateandhomes-detail/3214-S-Canal-St_Chicago_IL_60616_M78355-55538,2199999.0,"3214 S Canal St, Chicago, IL 60616",FOR_SALE,8800.0,5,5.5+,41.83586,-87.63805
https://www.realtor.com/,7219114393,https://www.realtor.com/realestateandhomes-detail/7655-W-Palatine-Ave_Chicago_IL_60631_M72191-14393,435000.0,"7655 W Palatine Ave, Chicago, IL 60631",FOR_SALE,3600.0,3,2.5,41.994789,-87.818828
https://www.realtor.com/,8626422113,https://www.realtor.com/realestateandhomes-detail/10905-S-Hamlin-Ave_Chicago_IL_60655_M86264-22113,300000.0,"10905 S Hamlin Ave, Chicago, IL 60655",FOR_SALE,958.0,2,2,41.694759,-87.71524
https://www.realtor.com/,7493408177,https://www.realtor.com/realestateandhomes-detail/5820-N-Mobile-Ave_Chicago_IL_60646_M74934-08177,349900.0,"5820 N Mobile Ave, Chicago, IL 60646",FOR_SALE,1389.0,3,1,41.987219,-87.785576
https://www.realtor.com/,7669365179,https://www.realtor.com/realestateandhomes-detail/7240-S-Oakley-Ave_Chicago_IL_60636_M76693-65179,114400.0,"7240 S Oakley Ave, Chicago, IL 60636",FOR_SALE,1016.0,3,2,41.761709,-87.680969
https://www.realtor.com/,8095649776,https://www.realtor.com/realestateandhomes-detail/826-W-Hutchinson-St_Chicago_IL_60613_M80956-49776,3249000.0,"826 W Hutchinson St, Chicago, IL 60613",FOR_SALE,10709.0,7,5.5+,41.959507,-87.650848
https://www.realtor.com/,7478056351,https://www.realtor.com/realestateandhomes-detail/8059-S-Morgan-St_Chicago_IL_60620_M74780-56351,335000.0,"8059 S Morgan St, Chicago, IL 60620",FOR_SALE,3000.0,4,1.5+,41.747072,-87.648442
https://www.realtor.com/,8073983128,https://www.realtor.com/realestateandhomes-detail/999-N-Lake-Shore-Dr-Unit-2A_Chicago_IL_60611_M80739-83128,1795000.0,"999 N Lake Shore Dr Unit 2A, Chicago, IL 60611",FOR_SALE,4000.0,3,3.5,41.900623,-87.62001
https://www.realtor.com/,9899755009,https://www.realtor.com/realestateandhomes-detail/209-E-Lake-Shore-Dr-14_Chicago_IL_60611_M98997-55009,11900000.0,"209 E Lake Shore Dr Unit 14, Chicago, IL 60611",FOR_SALE,12250.0,7,7.5+,41.900598,-87.621433
https://www.realtor.com/,8479137845,https://www.realtor.com/realestateandhomes-detail/2835-W-Fitch-Ave_Chicago_IL_60645_M84791-37845,399900.0,"2835 W Fitch Ave, Chicago, IL 60645",FOR_SALE,1648.0,4,2,42.010878,-87.701103
https://www.realtor.com/,7761219430,https://www.realtor.com/realestateandhomes-detail/6325-S-Albany-Ave_Chicago_IL_60629_M77612-19430,155000.0,"6325 S Albany Ave, Chicago, IL 60629",FOR_SALE,840.0,3,1,41.778206,-87.700329
https://www.realtor.com/,8720884460,https://www.realtor.com/realestateandhomes-detail/566-N-Long-Ave_Chicago_IL_60644_M87208-84460,274900.0,"566 N Long Ave, Chicago, IL 60644",FOR_SALE,3500.0,5,3,41.890826,-87.760894
https://www.realtor.com/,8119158807,https://www.realtor.com/realestateandhomes-detail/523-W-46th-Pl_Chicago_IL_60609_M81191-58807,360000.0,"523 W 46th Pl, Chicago, IL 60609",FOR_SALE,2018.0,4,2.5,41.809639,-87.639194
https://www.realtor.com/,7544562944,https://www.realtor.com/realestateandhomes-detail/6707-N-Oketo-Ave_Chicago_IL_60631_M75445-62944,699900.0,"6707 N Oketo Ave, Chicago, IL 60631",FOR_SALE,2500.0,4,3,42.002792,-87.811261
https://www.realtor.com/,8820544259,https://www.realtor.com/realestateandhomes-detail/5854-S-Indiana-Ave_Chicago_IL_60637_M88205-44259,300000.0,"5854 S Indiana Ave, Chicago, IL 60637",FOR_SALE,2100.0,4,3,41.787692,-87.621073
https://www.realtor.com/,8252701756,https://www.realtor.com/realestateandhomes-detail/6241-N-Kilpatrick-Ave_Chicago_IL_60646_M82527-01756,1695000.0,"6241 N Kilpatrick Ave, Chicago, IL 60646",FOR_SALE,3748.0,4,4.5,41.994129,-87.742926
https://www.realtor.com/,7119138093,https://www.realtor.com/realestateandhomes-detail/5024-N-Neenah-Ave_Chicago_IL_60656_M71191-38093,332500.0,"5024 N Neenah Ave, Chicago, IL 60656",FOR_SALE,1400.0,3,1,41.972762,-87.790703
https://www.realtor.com/,8566560626,https://www.realtor.com/realestateandhomes-detail/1407-N-Hoyne-Ave_Chicago_IL_60622_M85665-60626,6500000.0,"1407 N Hoyne Ave, Chicago, IL 60622",FOR_SALE,10250.0,5,4.5+,41.90733,-87.679498
https://www.realtor.com/,9488765499,https://www.realtor.com/realestateandhomes-detail/414-N-Lawndale-Ave_Chicago_IL_60624_M94887-65499,389000.0,"414 N Lawndale Ave, Chicago, IL 60624",FOR_SALE,3125.0,3,2,41.888599,-87.718902
https://www.realtor.com/,8210944121,https://www.realtor.com/realestateandhomes-detail/3850-W-106th-St_Chicago_IL_60655_M82109-44121,279500.0,"3850 W 106th St, Chicago, IL 60655",FOR_SALE,1645.0,3,1,41.700614,-87.717897
https://www.realtor.com/,8194430937,https://www.realtor.com/realestateandhomes-detail/7517-S-Chappel-Ave_Chicago_IL_60649_M81944-30937,129000.0,"7517 S Chappel Ave, Chicago, IL 60649",FOR_SALE,1510.0,3,1.5,41.758278,-87.574554
https://www.realtor.com/,7434899944,https://www.realtor.com/realestateandhomes-detail/4848-W-Concord-Pl_Chicago_IL_60639_M74348-99944,279900.0,"4848 W Concord Pl, Chicago, IL 60639",FOR_SALE,1350.0,4,1,41.910781,-87.747827
https://www.realtor.com/,8577920229,https://www.realtor.com/realestateandhomes-detail/5645-S-Woodlawn-Ave_Chicago_IL_60637_M85779-20229,2895000.0,"5645 S Woodlawn Ave, Chicago, IL 60637",FOR_SALE,5730.0,6,4.5+,41.791936,-87.596025
https://www.realtor.com/,8705721593,https://www.realtor.com/realestateandhomes-detail/4340-W-Van-Buren-St_Chicago_IL_60624_M87057-21593,122500.0,"4340 W Van Buren St, Chicago, IL 60624",FOR_SALE,1200.0,3,2,41.875417,-87.734482
https://www.realtor.com/,7556043269,https://www.realtor.com/realestateandhomes-detail/5468-S-Ellis-Ave_Chicago_IL_60615_M75560-43269,1100000.0,"5468 S Ellis Ave, Chicago, IL 60615",FOR_SALE,3371.0,5,2.5,41.795926,-87.601663
https://www.realtor.com/,7945607461,https://www.realtor.com/realestateandhomes-detail/2854-E-130th-St_Chicago_IL_60633_M79456-07461,259900.0,"2854 E 130th St, Chicago, IL 60633",FOR_SALE,1103.0,3,1,41.659492,-87.553503
https://www.realtor.com/,9368286880,https://www.realtor.com/realestateandhomes-detail/1120-N-Lake-Shore-Dr-3C_Chicago_IL_60611_M93682-86880,375000.0,"1120 N Lake Shore Dr Unit 3C, Chicago, IL 60611",FOR_SALE,1435.0,2,2,41.903057,-87.625137
https://www.realtor.com/,8336019994,https://www.realtor.com/realestateandhomes-detail/5490-S-Shore-Dr-Apt-3S_Chicago_IL_60615_M83360-19994,675000.0,"5490 S Shore Dr Apt 3S, Chicago, IL 60615",FOR_SALE,5350.0,6,4.5,41.795522,-87.581443
https://www.realtor.com/,7225591666,https://www.realtor.com/realestateandhomes-detail/5430-N-Lakewood-Ave_Chicago_IL_60640_M72255-91666,1825000.0,"5430 N Lakewood Ave, Chicago, IL 60640",FOR_SALE,6000.0,5,4,41.980905,-87.662827
https://www.realtor.com/,8408268693,https://www.realtor.com/realestateandhomes-detail/6254-W-Eastwood-Ave_Chicago_IL_60630_M84082-68693,359900.0,"6254 W Eastwood Ave, Chicago, IL 60630",FOR_SALE,1200.0,3,1,41.964959,-87.784126
https://www.realtor.com/,8336387764,https://www.realtor.com/realestateandhomes-detail/2318-N-Central-Park-Ave_Chicago_IL_60647_M83363-87764,620000.0,"2318 N Central Park Ave, Chicago, IL 60647",FOR_SALE,1500.0,3,2.5,41.923385,-87.71731
https://www.realtor.com/,8625396520,https://www.realtor.com/realestateandhomes-detail/1741-N-Nordica-Ave_Chicago_IL_60707_M86253-96520,394900.0,"1741 N Nordica Ave, Chicago, IL 60707",FOR_SALE,2100.0,5,2.5,41.911997,-87.801692
https://www.realtor.com/,8912200808,https://www.realtor.com/realestateandhomes-detail/6226-S-Kostner-Ave_Chicago_IL_60629_M89122-00808,314900.0,"6226 S Kostner Ave, Chicago, IL 60629",FOR_SALE,2112.0,5,3,41.779487,-87.732904
https://www.realtor.com/,8446176195,https://www.realtor.com/realestateandhomes-detail/10715-S-Avenue-O_Chicago_IL_60617_M84461-76195,224900.0,"10715 S Avenue O, Chicago, IL 60617",FOR_SALE,1550.0,3,2,41.700465,-87.53973
https://www.realtor.com/,8878125215,https://www.realtor.com/realestateandhomes-detail/5604-S-Meade-Ave_Chicago_IL_60638_M88781-25215,299000.0,"5604 S Meade Ave, Chicago, IL 60638",FOR_SALE,1195.0,3,1,41.790434,-87.774771
https://www.realtor.com/,7401090288,https://www.realtor.com/realestateandhomes-detail/4920-N-Mulligan-Ave_Chicago_IL_60630_M74010-90288,579000.0,"4920 N Mulligan Ave, Chicago, IL 60630",FOR_SALE,1932.0,4,2.5,41.97092,-87.787103
https://www.realtor.com/,7327678063,https://www.realtor.com/realestateandhomes-detail/1442-W-Berteau-Ave_Chicago_IL_60613_M73276-78063,4995900.0,"1442 W Berteau Ave, Chicago, IL 60613",FOR_SALE,7000.0,5,5.5,41.958254,-87.666167
https://www.realtor.com/,7749158043,https://www.realtor.com/realestateandhomes-detail/2442-W-Morse-Ave_Chicago_IL_60645_M77491-58043,849900.0,"2442 W Morse Ave, Chicago, IL 60645",FOR_SALE,2502.0,3,1.5,42.007065,-87.691816
https://www.realtor.com/,8798110162,https://www.realtor.com/realestateandhomes-detail/7510-S-Carpenter-St_Chicago_IL_60620_M87981-10162,150000.0,"7510 S Carpenter St, Chicago, IL 60620",FOR_SALE,1250.0,3,2,41.757305,-87.650627
https://www.realtor.com/,8863200465,https://www.realtor.com/realestateandhomes-detail/836-E-52nd-St_Chicago_IL_60615_M88632-00465,1295000.0,"836 E 52nd St, Chicago, IL 60615",FOR_SALE,4304.0,4,2.5+,41.800711,-87.60485
https://www.realtor.com/,7179950333,https://www.realtor.com/realestateandhomes-detail/3422-S-Hermitage-Ave_Chicago_IL_60608_M71799-50333,370000.0,"3422 S Hermitage Ave, Chicago, IL 60608",FOR_SALE,1980.0,5,3,41.831539,-87.669548
https://www.realtor.com/,7310731382,https://www.realtor.com/realestateandhomes-detail/5533-N-Odell-Ave_Chicago_IL_60656_M73107-31382,490000.0,"5533 N Odell Ave, Chicago, IL 60656",FOR_SALE,1000.0,2,2,41.979893,-87.810574
https://www.realtor.com/,9741063235,https://www.realtor.com/realestateandhomes-detail/7040-S-Constance-Ave_Chicago_IL_60649_M97410-63235,397000.0,"7040 S Constance Ave, Chicago, IL 60649",FOR_SALE,1898.0,2,2.5,41.76682,-87.580372
https://www.realtor.com/,8009131372,https://www.realtor.com/realestateandhomes-detail/11828-S-Hale-Ave_Chicago_IL_60643_M80091-31372,269900.0,"11828 S Hale Ave, Chicago, IL 60643",FOR_SALE,1800.0,3,2,41.678246,-87.673524
https://www.realtor.com/,7510866308,https://www.realtor.com/realestateandhomes-detail/2733-N-Artesian-Ave_Chicago_IL_60647_M75108-66308,489900.0,"2733 N Artesian Ave, Chicago, IL 60647",FOR_SALE,1612.0,4,2,41.93135,-87.688749
https://www.realtor.com/,8141923224,https://www.realtor.com/realestateandhomes-detail/7648-S-Eberhart-Ave_Chicago_IL_60619_M81419-23224,164000.0,"7648 S Eberhart Ave, Chicago, IL 60619",FOR_SALE,1008.0,3,1.5,41.755193,-87.612946
https://www.realtor.com/,8438665625,https://www.realtor.com/realestateandhomes-detail/5619-S-Nashville-Ave_Chicago_IL_60638_M84386-65625,439900.0,"5619 S Nashville Ave, Chicago, IL 60638",FOR_SALE,2200.0,3,3,41.789827,-87.786237
https://www.realtor.com/,8228426922,https://www.realtor.com/realestateandhomes-detail/27-E-101st-Pl_Chicago_IL_60628_M82284-26922,229000.0,"27 E 101st Pl, Chicago, IL 60628",FOR_SALE,1587.0,4,2,41.709651,-87.622349
https://www.realtor.com/,7948480271,https://www.realtor.com/realestateandhomes-detail/4729-W-Addison-St_Chicago_IL_60641_M79484-80271,294500.0,"4729 W Addison St, Chicago, IL 60641",FOR_SALE,1236.0,3,1,41.945842,-87.745681
https://www.realtor.com/,7026466957,https://www.realtor.com/realestateandhomes-detail/11437-S-Forrestville-Ave_Chicago_IL_60628_M70264-66957,220000.0,"11437 S Forrestville Ave, Chicago, IL 60628",FOR_SALE,1088.0,2,2,41.686182,-87.609142
https://www.realtor.com/,8067647309,https://www.realtor.com/realestateandhomes-detail/6842-N-Central-Ave_Chicago_IL_60646_M80676-47309,449900.0,"6842 N Central Ave, Chicago, IL 60646",FOR_SALE,1344.0,3,2,42.00597,-87.76214
https://www.realtor.com/,7615902887,https://www.realtor.com/realestateandhomes-detail/3750-N-Hoyne-Ave_Chicago_IL_60618_M76159-02887,2750000.0,"3750 N Hoyne Ave, Chicago, IL 60618",FOR_SALE,6800.0,6,4.5,41.950252,-87.681294
https://www.realtor.com/,9041780056,https://www.realtor.com/realestateandhomes-detail/70-E-Cedar-St-9W_Chicago_IL_60611_M90417-80056,349000.0,"70 E Cedar St Unit 9W, Chicago, IL 60611",FOR_SALE,2400.0,4,3,41.902641,-87.625542
https://www.realtor.com/,8633964538,https://www.realtor.com/realestateandhomes-detail/5908-W-Grace-St_Chicago_IL_60634_M86339-64538,395000.0,"5908 W Grace St, Chicago, IL 60634",FOR_SALE,1602.0,5,2,41.949695,-87.774738
https://www.realtor.com/,8655753742,https://www.realtor.com/realestateandhomes-detail/8251-W-Catherine-Ave_Chicago_IL_60656_M86557-53742,439900.0,"8251 W Catherine Ave, Chicago, IL 60656",FOR_SALE,1404.0,3,1.5,41.977043,-87.833785
https://www.realtor.com/,7695112277,https://www.realtor.com/realestateandhomes-detail/3758-W-Shakespeare-Ave_Chicago_IL_60647_M76951-12277,425000.0,"3758 W Shakespeare Ave, Chicago, IL 60647",FOR_SALE,1578.0,4,2,41.920266,-87.721588
https://www.realtor.com/,7189861148,https://www.realtor.com/realestateandhomes-detail/7337-S-Paxton-Ave_Chicago_IL_60649_M71898-61148,379000.0,"7337 S Paxton Ave, Chicago, IL 60649",FOR_SALE,2128.0,5,2.5,41.761455,-87.570928
https://www.realtor.com/,7366626108,https://www.realtor.com/realestateandhomes-detail/9124-S-Cregier-Ave_Chicago_IL_60617_M73666-26108,222900.0,"9124 S Cregier Ave, Chicago, IL 60617",FOR_SALE,1596.0,3,2.5,41.728917,-87.580738
https://www.realtor.com/,7417820067,https://www.realtor.com/realestateandhomes-detail/1338-W-31st-Pl_Chicago_IL_60608_M74178-20067,275000.0,"1338 W 31st Pl, Chicago, IL 60608",FOR_SALE,901.0,2,1,41.837213,-87.659982
https://www.realtor.com/,7279688209,https://www.realtor.com/realestateandhomes-detail/1617-N-Drake-Ave_Chicago_IL_60647_M72796-88209,545000.0,"1617 N Drake Ave, Chicago, IL 60647",FOR_SALE,7000.0,8,2,41.910687,-87.714511
https://www.realtor.com/,7023113725,https://www.realtor.com/realestateandhomes-detail/7542-S-Perry-Ave_Chicago_IL_60620_M70231-13725,368000.0,"7542 S Perry Ave, Chicago, IL 60620",FOR_SALE,3593.0,5,3,41.75687,-87.628432
https://www.realtor.com/,9400164347,https://www.realtor.com/realestateandhomes-detail/7321-S-South-Shore-Dr-Apt-10C_Chicago_IL_60649_M94001-64347,229999.0,"7321 S South Shore Dr Apt 10C, Chicago, IL 60649",FOR_SALE,2000.0,3,2.5,41.763632,-87.559538
https://www.realtor.com/,8097484030,https://www.realtor.com/realestateandhomes-detail/2102-N-Parkside-Ave_Chicago_IL_60639_M80974-84030,349900.0,"2102 N Parkside Ave, Chicago, IL 60639",FOR_SALE,1700.0,4,2,41.918247,-87.767345
https://www.realtor.com/,7186495321,https://www.realtor.com/realestateandhomes-detail/5257-N-Olcott-Ave_Chicago_IL_60656_M71864-95321,349900.0,"5257 N Olcott Ave, Chicago, IL 60656",FOR_SALE,1440.0,3,1.5,41.976028,-87.814077
https://www.realtor.com/,9874458165,https://www.realtor.com/realestateandhomes-detail/3012-W-Wilson-Ave_Chicago_IL_60625_M98744-58165,420000.0,"3012 W Wilson Ave, Chicago, IL 60625",FOR_SALE,1450.0,4,1.5,41.96499,-87.704092
https://www.realtor.com/,8788271433,https://www.realtor.com/realestateandhomes-detail/8553-W-Saint-Joseph-Ave_Chicago_IL_60656_M87882-71433,475000.0,"8553 W Saint Joseph Ave, Chicago, IL 60656",FOR_SALE,3115.0,3,2,41.972842,-87.840461
https://www.realtor.com/,9083495208,https://www.realtor.com/realestateandhomes-detail/5724-S-Harper-Ave_Chicago_IL_60637_M90834-95208,1425000.0,"5724 S Harper Ave, Chicago, IL 60637",FOR_SALE,3500.0,4,2.5,41.790729,-87.589332
https://www.realtor.com/,7728244665,https://www.realtor.com/realestateandhomes-detail/10446-S-Prairie-Ave_Chicago_IL_60628_M77282-44665,251000.0,"10446 S Prairie Ave, Chicago, IL 60628",FOR_SALE,1043.0,3,2,41.704063,-87.617688
https://www.realtor.com/,7169481232,https://www.realtor.com/realestateandhomes-detail/5754-N-Moody-Ave_Chicago_IL_60646_M71694-81232,399999.0,"5754 N Moody Ave, Chicago, IL 60646",FOR_SALE,989.0,2,2,41.986314,-87.781955
https://www.realtor.com/,8786514492,https://www.realtor.com/realestateandhomes-detail/10751-S-Parnell-Ave_Chicago_IL_60628_M87865-14492,415000.0,"10751 S Parnell Ave, Chicago, IL 60628",FOR_SALE,2528.0,3,2.5+,41.698285,-87.636175
https://www.realtor.com/,7997838049,https://www.realtor.com/realestateandhomes-detail/3129-N-Nottingham-Ave_Chicago_IL_60634_M79978-38049,450000.0,"3129 N Nottingham Ave, Chicago, IL 60634",FOR_SALE,2089.0,6,3,41.937332,-87.803568
https://www.realtor.com/,8286931487,https://www.realtor.com/realestateandhomes-detail/2629-W-Birchwood-Ave_Chicago_IL_60645_M82869-31487,612000.0,"2629 W Birchwood Ave, Chicago, IL 60645",FOR_SALE,2455.0,4,2.5,42.017329,-87.696106
https://www.realtor.com/,7627790021,https://www.realtor.com/realestateandhomes-detail/5240-W-Winnemac-Ave_Chicago_IL_60630_M76277-90021,899000.0,"5240 W Winnemac Ave, Chicago, IL 60630",FOR_SALE,3900.0,5,4,41.972737,-87.759368
https://www.realtor.com/,9665943272,https://www.realtor.com/realestateandhomes-detail/4817-W-Schubert-Ave_Chicago_IL_60639_M96659-43272,359900.0,"4817 W Schubert Ave, Chicago, IL 60639",FOR_SALE,1400.0,3,3,41.929449,-87.747375
https://www.realtor.com/,7163530054,https://www.realtor.com/realestateandhomes-detail/3759-N-Pittsburgh-Ave_Chicago_IL_60634_M71635-30054,375000.0,"3759 N Pittsburgh Ave, Chicago, IL 60634",FOR_SALE,1000.0,3,1.5,41.948374,-87.832537
https://www.realtor.com/,7402391967,https://www.realtor.com/realestateandhomes-detail/3828-S-Wood-St_Chicago_IL_60609_M74023-91967,289900.0,"3828 S Wood St, Chicago, IL 60609",FOR_SALE,630.0,2,2,41.824086,-87.670576
https://www.realtor.com/,8396212837,https://www.realtor.com/realestateandhomes-detail/2236-W-Ainslie-St_Chicago_IL_60625_M83962-12837,2675000.0,"2236 W Ainslie Ave, Chicago, IL 60625",FOR_SALE,5000.0,4,4.5,41.970742,-87.685605
https://www.realtor.com/,7521790670,https://www.realtor.com/realestateandhomes-detail/11923-S-LA-Salle-St_Chicago_IL_60628_M75217-90670,109900.0,"11923 S LA Salle St, Chicago, IL 60628",FOR_SALE,1582.0,3,2,41.67727,-87.625933
https://www.realtor.com/,7883864275,https://www.realtor.com/realestateandhomes-detail/7327-W-Olive-Ave_Chicago_IL_60631_M78838-64275,350000.0,"7327 W Olive Ave, Chicago, IL 60631",FOR_SALE,1361.0,3,2.5,41.983305,-87.810479
https://www.realtor.com/,8876358675,https://www.realtor.com/realestateandhomes-detail/7447-N-Octavia-Ave_Chicago_IL_60631_M88763-58675,399000.0,"7447 N Octavia Ave, Chicago, IL 60631",FOR_SALE,1100.0,3,1,42.016689,-87.808663
https://www.realtor.com/,7461476156,https://www.realtor.com/realestateandhomes-detail/5714-S-Narragansett-Ave_Chicago_IL_60638_M74614-76156,350000.0,"5714 S Narragansett Ave, Chicago, IL 60638",FOR_SALE,2330.0,4,2.5,41.788164,-87.782003
https://www.realtor.com/,7979901941,https://www.realtor.com/realestateandhomes-detail/10509-S-Wood-St_Chicago_IL_60643_M79799-01941,825000.0,"10509 S Wood St, Chicago, IL 60643",FOR_SALE,3500.0,5,3.5,41.702496,-87.666573
https://www.realtor.com/,8143590744,https://www.realtor.com/realestateandhomes-detail/2659-N-Merrimac-Ave_Chicago_IL_60639_M81435-90744,314900.0,"2659 N Merrimac Ave, Chicago, IL 60639",FOR_SALE,1022.0,3,1,41.929096,-87.781627
https://www.realtor.com/,7547613676,https://www.realtor.com/realestateandhomes-detail/5534-W-School-St_Chicago_IL_60641_M75476-13676,269900.0,"5534 W School St, Chicago, IL 60641",FOR_SALE,1281.0,3,2,41.940677,-87.76551
https://www.realtor.com/,8931232332,https://www.realtor.com/realestateandhomes-detail/4947-S-Komensky-Ave_Chicago_IL_60632_M89312-32332,285000.0,"4947 S Komensky Ave, Chicago, IL 60632",FOR_SALE,1172.0,2,2,41.802831,-87.724312
https://www.realtor.com/,8177005180,https://www.realtor.com/realestateandhomes-detail/7239-N-Olcott-Ave_Chicago_IL_60631_M81770-05180,394500.0,"7239 N Olcott Ave, Chicago, IL 60631",FOR_SALE,1764.0,2,1.5,42.012679,-87.813587
https://www.realtor.com/,8874156652,https://www.realtor.com/realestateandhomes-detail/4942-S-Ellis-Ave_Chicago_IL_60615_M88741-56652,1975000.0,"4942 S Ellis Ave, Chicago, IL 60615",FOR_SALE,5127.0,6,4.5+,41.804674,-87.602026
https://www.realtor.com/,8149100510,https://www.realtor.com/realestateandhomes-detail/3145-N-Normandy-Ave_Chicago_IL_60634_M81491-00510,369999.0,"3145 N Normandy Ave, Chicago, IL 60634",FOR_SALE,1200.0,3,2.5,41.937691,-87.792887
https://www.realtor.com/,7089054907,https://www.realtor.com/realestateandhomes-detail/5464-S-Woodlawn-Ave-Apt-3E_Chicago_IL_60615_M70890-54907,145500.0,"5464 S Woodlawn Ave Apt 3E, Chicago, IL 60615",FOR_SALE,900.0,1,1,41.79613,-87.596739
https://www.realtor.com/,7161995149,https://www.realtor.com/realestateandhomes-detail/2426-W-Eastwood-Ave_Chicago_IL_60625_M71619-95149,649999.0,"2426 W Eastwood Ave, Chicago, IL 60625",FOR_SALE,1448.0,3,1,41.965983,-87.689959
https://www.realtor.com/,7415680164,https://www.realtor.com/realestateandhomes-detail/3658-S-Paulina-St_Chicago_IL_60609_M74156-80164,418000.0,"3658 S Paulina St, Chicago, IL 60609",FOR_SALE,2200.0,3,2,41.827072,-87.66822
https://www.realtor.com/,9540044121,https://www.realtor.com/realestateandhomes-detail/1755-E-55th-St-Apt-903_Chicago_IL_60615_M95400-44121,150000.0,"1755 E 55th St Apt 903, Chicago, IL 60615",FOR_SALE,2200.0,3,4,41.794971,-87.581459
https://www.realtor.com/,7746268266,https://www.realtor.com/realestateandhomes-detail/2959-N-Nagle-Ave_Chicago_IL_60634_M77462-68266,285000.0,"2959 N Nagle Ave, Chicago, IL 60634",FOR_SALE,1400.0,2,1,41.934516,-87.786676
https://www.realtor.com/,8310773283,https://www.realtor.com/realestateandhomes-detail/13315-S-Prairie-Ave_Chicago_IL_60827_M83107-73283,114900.0,"13315 S Prairie Ave, Chicago, IL 60827",FOR_SALE,2025.0,5,2,41.653072,-87.615167
https://www.realtor.com/,8755378905,https://www.realtor.com/realestateandhomes-detail/1833-W-Farwell-Ave_Chicago_IL_60626_M87553-78905,549900.0,"1833 W Farwell Ave, Chicago, IL 60626",FOR_SALE,1920.0,4,1.5,42.006156,-87.677043
https://www.realtor.com/,8510156224,https://www.realtor.com/realestateandhomes-detail/5540-S-Kenwood-Ave_Chicago_IL_60637_M85101-56224,2300000.0,"5540 S Kenwood Ave, Chicago, IL 60637",FOR_SALE,4000.0,4,4.5,41.793904,-87.593719
https://www.realtor.com/,7826445682,https://www.realtor.com/realestateandhomes-detail/5405-N-Laporte-Ave_Chicago_IL_60630_M78264-45682,524900.0,"5405 N Laporte Ave, Chicago, IL 60630",FOR_SALE,1718.0,3,2,41.980234,-87.751666
https://www.realtor.com/,8035805044,https://www.realtor.com/realestateandhomes-detail/209-N-Latrobe-Ave_Chicago_IL_60644_M80358-05044,269900.0,"209 N Latrobe Ave, Chicago, IL 60644",FOR_SALE,5997.0,7,5,41.884601,-87.756094
https://www.realtor.com/,7311725335,https://www.realtor.com/realestateandhomes-detail/7439-W-Lunt-Ave_Chicago_IL_60631_M73117-25335,1245000.0,"7439 W Lunt Ave, Chicago, IL 60631",FOR_SALE,4200.0,5,5.5,42.007747,-87.813275
https://www.realtor.com/,8911553285,https://www.realtor.com/realestateandhomes-detail/10839-S-Mackinaw-Ave_Chicago_IL_60617_M89115-53285,265000.0,"10839 S Mackinaw Ave, Chicago, IL 60617",FOR_SALE,1132.0,3,1.5,41.697983,-87.542213
https://www.realtor.com/,7033934850,https://www.realtor.com/realestateandhomes-detail/3300-N-Hamilton-Ave_Chicago_IL_60618_M70339-34850,1695000.0,"3300 N Hamilton Ave, Chicago, IL 60618",FOR_SALE,4900.0,4,3.5+,41.941469,-87.682394
https://www.realtor.com/,7964172382,https://www.realtor.com/realestateandhomes-detail/1900-N-Nashville-Ave_Chicago_IL_60707_M79641-72382,298000.0,"1900 N Nashville Ave, Chicago, IL 60707",FOR_SALE,1000.0,2,1.5,41.914657,-87.790439
https://www.realtor.com/,9411495040,https://www.realtor.com/realestateandhomes-detail/2325-N-Cleveland-Ave_Chicago_IL_60614_M94114-95040,7350000.0,"2325 N Cleveland Ave, Chicago, IL 60614",FOR_SALE,7900.0,5,5.5,41.924441,-87.640958
https://www.realtor.com/,7828569840,https://www.realtor.com/realestateandhomes-detail/3024-W-Fargo-Ave_Chicago_IL_60645_M78285-69840,387000.0,"3024 W Fargo Ave, Chicago, IL 60645",FOR_SALE,1470.0,3,1.5,42.016741,-87.705435
https://www.realtor.com/,8855900192,https://www.realtor.com/realestateandhomes-detail/1936-S-Racine-Ave_Chicago_IL_60608_M88559-00192,1049900.0,"1936 S Racine Ave, Chicago, IL 60608",FOR_SALE,5632.0,5,3,41.855478,-87.656706
https://www.realtor.com/,7033581236,https://www.realtor.com/realestateandhomes-detail/7027-W-64th-Pl_Chicago_IL_60638_M70335-81236,425000.0,"7027 W 64th Pl, Chicago, IL 60638",FOR_SALE,2478.0,3,3,41.774426,-87.79691
https://www.realtor.com/,7935715539,https://www.realtor.com/realestateandhomes-detail/10117-S-Sangamon-St_Chicago_IL_60643_M79357-15539,150000.0,"10117 S Sangamon St, Chicago, IL 60643",FOR_SALE,2862.0,4,3.5,41.709966,-87.646216
https://www.realtor.com/,8441296281,https://www.realtor.com/realestateandhomes-detail/9038-S-May-St_Chicago_IL_60620_M84412-96281,319900.0,"9038 S May St, Chicago, IL 60620",FOR_SALE,1362.0,5,2,41.729297,-87.652286
https://www.realtor.com/,8064649401,https://www.realtor.com/realestateandhomes-detail/2959-W-Logan-Blvd_Chicago_IL_60647_M80646-49401,1650000.0,"2959 W Logan Blvd, Chicago, IL 60647",FOR_SALE,4253.0,5,3.5,41.927912,-87.702231
https://www.realtor.com/,7929717648,https://www.realtor.com/realestateandhomes-detail/8250-S-Rhodes-Ave_Chicago_IL_60619_M79297-17648,359900.0,"8250 S Rhodes Ave, Chicago, IL 60619",FOR_SALE,3000.0,5,4,41.744201,-87.611447
https://www.realtor.com/,8939082148,https://www.realtor.com/realestateandhomes-detail/10642-S-Sacramento-Ave_Chicago_IL_60655_M89390-82148,379000.0,"10642 S Sacramento Ave, Chicago, IL 60655",FOR_SALE,1093.0,3,2,41.699462,-87.696772
https://www.realtor.com/,9603159843,https://www.realtor.com/realestateandhomes-detail/5530-S-Shore-Dr-Apt-8A_Chicago_IL_60637_M96031-59843,140000.0,"5530 S Shore Dr Apt 8A, Chicago, IL 60637",FOR_SALE,1100.0,2,1,41.794334,-87.580795
https://www.realtor.com/,8002823462,https://www.realtor.com/realestateandhomes-detail/1611-W-Cullom-Ave_Chicago_IL_60613_M80028-23462,750000.0,"1611 W Cullom Ave, Chicago, IL 60613",FOR_SALE,1870.0,4,1.5,41.959527,-87.669776
https://www.realtor.com/,7531707936,https://www.realtor.com/realestateandhomes-detail/5140-S-Moody-Ave_Chicago_IL_60638_M75317-07936,555000.0,"5140 S Moody Ave, Chicago, IL 60638",FOR_SALE,2222.0,3,3,41.798572,-87.776249
https://www.realtor.com/,8068360925,https://www.realtor.com/realestateandhomes-detail/6516-S-Harvard-Ave_Chicago_IL_60621_M80683-60925,300000.0,"6516 S Harvard Ave, Chicago, IL 60621",FOR_SALE,1646.0,3,2,41.775993,-87.63376
https://www.realtor.com/,7765851532,https://www.realtor.com/realestateandhomes-detail/2026-N-Kenmore-Ave_Chicago_IL_60614_M77658-51532,9995000.0,"2026 N Kenmore Ave, Chicago, IL 60614",FOR_SALE,13400.0,10,8.5+,41.918882,-87.654958
https://www.realtor.com/,7074944353,https://www.realtor.com/realestateandhomes-detail/6436-S-Lamon-Ave_Chicago_IL_60638_M70749-44353,369900.0,"6436 S Lamon Ave, Chicago, IL 60638",FOR_SALE,1100.0,3,2,41.775433,-87.74498
https://www.realtor.com/,8000742163,https://www.realtor.com/realestateandhomes-detail/6417-S-Whipple-St_Chicago_IL_60629_M80007-42163,279000.0,"6417 S Whipple St, Chicago, IL 60629",FOR_SALE,1500.0,5,3,41.776653,-87.699072
https://www.realtor.com/,7188287755,https://www.realtor.com/realestateandhomes-detail/6900-S-Euclid-Ave_Chicago_IL_60649_M71882-87755,450000.0,"6900 S Euclid Ave, Chicago, IL 60649",FOR_SALE,3260.0,5,3.5+,41.769625,-87.577988
https://www.realtor.com/,7068753833,https://www.realtor.com/realestateandhomes-detail/9240-S-May-St_Chicago_IL_60620_M70687-53833,358000.0,"9240 S May St, Chicago, IL 60620",FOR_SALE,2700.0,3,3,41.725629,-87.652191
https://www.realtor.com/,8831023508,https://www.realtor.com/realestateandhomes-detail/1841-N-Orchard-St_Chicago_IL_60614_M88310-23508,5900000.0,"1841 N Orchard St, Chicago, IL 60614",FOR_SALE,8380.0,6,6.5,41.915101,-87.645645
https://www.realtor.com/,7616571534,https://www.realtor.com/realestateandhomes-detail/1755-E-55th-St-Apt-601_Chicago_IL_60615_M76165-71534,155000.0,"1755 E 55th St Apt 601, Chicago, IL 60615",FOR_SALE,1800.0,2,2,41.794971,-87.581459
https://www.realtor.com/,7952699363,https://www.realtor.com/realestateandhomes-detail/11050-S-Avenue-O_Chicago_IL_60617_M79526-99363,289900.0,"11050 S Avenue O, Chicago, IL 60617",FOR_SALE,1000.0,3,1,41.694058,-87.540463
https://www.realtor.com/,8087842117,https://www.realtor.com/realestateandhomes-detail/713-E-89th-St_Chicago_IL_60619_M80878-42117,252900.0,"713 E 89th St, Chicago, IL 60619",FOR_SALE,2600.0,4,4,41.73271,-87.606543
https://www.realtor.com/,7809632260,https://www.realtor.com/realestateandhomes-detail/11314-S-Peoria-St_Chicago_IL_60643_M78096-32260,225000.0,"11314 S Peoria St, Chicago, IL 60643",FOR_SALE,1300.0,2,2,41.688194,-87.645029
https://www.realtor.com/,8440298233,https://www.realtor.com/realestateandhomes-detail/1151-E-56th-St-Apt-1_Chicago_IL_60637_M84402-98233,415000.0,"1151 E 56th St Apt 1, Chicago, IL 60637",FOR_SALE,1500.0,3,2,41.793108,-87.597931
https://www.realtor.com/,7466944283,https://www.realtor.com/realestateandhomes-detail/2136-N-Narragansett-Ave_Chicago_IL_60639_M74669-44283,240000.0,"2136 N Narragansett Ave, Chicago, IL 60639",FOR_SALE,1500.0,4,3,41.919338,-87.785663
https://www.realtor.com/,8670154659,https://www.realtor.com/realestateandhomes-detail/7940-S-Crandon-Ave_Chicago_IL_60617_M86701-54659,200000.0,"7940 S Crandon Ave, Chicago, IL 60617",FOR_SALE,1648.0,3,2.5,41.750484,-87.568996
https://www.realtor.com/,9813137486,https://www.realtor.com/realestateandhomes-detail/8745-S-Indiana-Ave_Chicago_IL_60619_M98131-37486,249900.0,"8745 S Indiana Ave, Chicago, IL 60619",FOR_SALE,1776.0,3,2,41.735122,-87.618862
https://www.realtor.com/,8433640501,https://www.realtor.com/realestateandhomes-detail/5919-N-Bernard-St_Chicago_IL_60659_M84336-40501,540000.0,"5919 N Bernard St, Chicago, IL 60659",FOR_SALE,2515.0,4,3,41.98909,-87.714815
https://www.realtor.com/,8487516201,https://www.realtor.com/realestateandhomes-detail/1445-E-83rd-St_Chicago_IL_60619_M84875-16201,167500.0,"1445 E 83rd St, Chicago, IL 60619",FOR_SALE,1242.0,3,1,41.743897,-87.58868
https://www.realtor.com/,9334030817,https://www.realtor.com/realestateandhomes-detail/5540-W-Hutchinson-St_Chicago_IL_60641_M93340-30817,425000.0,"5540 W Hutchinson St, Chicago, IL 60641",FOR_SALE,2800.0,4,2,41.958017,-87.766332
https://www.realtor.com/,7441924314,https://www.realtor.com/realestateandhomes-detail/6667-W-Schreiber-Ave_Chicago_IL_60631_M74419-24314,409900.0,"6667 W Schreiber Ave, Chicago, IL 60631",FOR_SALE,1400.0,3,1.5,41.997965,-87.794903
https://www.realtor.com/,7405699524,https://www.realtor.com/realestateandhomes-detail/4355-S-Calumet-Ave_Chicago_IL_60653_M74056-99524,450000.0,"4355 S Calumet Ave, Chicago, IL 60653",FOR_SALE,3025.0,3,3.5,41.814969,-87.617955
https://www.realtor.com/,7734989740,https://www.realtor.com/realestateandhomes-detail/10141-S-Yates-Blvd_Chicago_IL_60617_M77349-89740,125000.0,"10141 S Yates Blvd, Chicago, IL 60617",FOR_SALE,1106.0,4,2,41.710522,-87.564193
https://www.realtor.com/,7791014849,https://www.realtor.com/realestateandhomes-detail/4039-N-Kenneth-Ave_Chicago_IL_60641_M77910-14849,1150000.0,"4039 N Kenneth Ave, Chicago, IL 60641",FOR_SALE,4200.0,4,3.5,41.954745,-87.738979
https://www.realtor.com/,7465826305,https://www.realtor.com/realestateandhomes-detail/3904-N-Oak-Park-Ave_Chicago_IL_60634_M74658-26305,349900.0,"3904 N Oak Park Ave, Chicago, IL 60634",FOR_SALE,1307.0,3,2,41.951167,-87.796556
https://www.realtor.com/,8208682974,https://www.realtor.com/realestateandhomes-detail/5926-S-Natchez-Ave_Chicago_IL_60638_M82086-82974,395000.0,"5926 S Natchez Ave, Chicago, IL 60638",FOR_SALE,2077.0,4,3,41.784121,-87.784287
https://www.realtor.com/,7359164696,https://www.realtor.com/realestateandhomes-detail/10038-S-Avenue-M_Chicago_IL_60617_M73591-64696,154999.0,"10038 S Avenue M, Chicago, IL 60617",FOR_SALE,1012.0,2,1,41.712698,-87.538051
https://www.realtor.com/,7717717905,https://www.realtor.com/realestateandhomes-detail/1133-E-83rd-St-Unit-185_Chicago_IL_60619_M77177-17905,345000.0,"1133 E 83rd St Unit 185, Chicago, IL 60619",FOR_SALE,2500.0,4,4,41.742364,-87.597242
https://www.realtor.com/,8067345849,https://www.realtor.com/realestateandhomes-detail/5623-S-Massasoit-Ave_Chicago_IL_60638_M80673-45849,345000.0,"5623 S Massasoit Ave, Chicago, IL 60638",FOR_SALE,2000.0,2,2,41.790124,-87.765511
https://www.realtor.com/,7142480850,https://www.realtor.com/realestateandhomes-detail/2847-W-Division-St_Chicago_IL_60622_M71424-80850,1547999.0,"2847 W Division St, Chicago, IL 60622",FOR_SALE,4500.0,5,3.5,41.902579,-87.698786
https://www.realtor.com/,8694863905,https://www.realtor.com/realestateandhomes-detail/4525-S-Talman-Ave_Chicago_IL_60632_M86948-63905,260000.0,"4525 S Talman Ave, Chicago, IL 60632",FOR_SALE,2269.0,3,2.5,41.811236,-87.690275
https://www.realtor.com/,8522096550,https://www.realtor.com/realestateandhomes-detail/1909-N-Sawyer-Ave_Chicago_IL_60647_M85220-96550,450000.0,"1909 N Sawyer Ave, Chicago, IL 60647",FOR_SALE,1450.0,3,1,41.915913,-87.708168
https://www.realtor.com/,8019138241,https://www.realtor.com/realestateandhomes-detail/2207-W-118th-St_Chicago_IL_60643_M80191-38241,400000.0,"2207 W 118th St, Chicago, IL 60643",FOR_SALE,1235.0,3,2,41.678907,-87.676525
https://www.realtor.com/,7008711401,https://www.realtor.com/realestateandhomes-detail/3116-W-Columbus-Ave_Chicago_IL_60652_M70087-11401,312900.0,"3116 W Columbus Ave, Chicago, IL 60652",FOR_SALE,2230.0,3,2.5,41.751562,-87.700758
https://www.realtor.com/,8271119355,https://www.realtor.com/realestateandhomes-detail/6443-N-Minnehaha-Ave_Chicago_IL_60646_M82711-19355,449000.0,"6443 N Minnehaha Ave, Chicago, IL 60646",FOR_SALE,1637.0,3,1.5,41.998389,-87.760899
https://www.realtor.com/,8858953491,https://www.realtor.com/realestateandhomes-detail/5018-W-Ainslie-St_Chicago_IL_60630_M88589-53491,389000.0,"5018 W Ainslie St, Chicago, IL 60630",FOR_SALE,1700.0,3,3,41.970048,-87.753475
https://www.realtor.com/,7627312749,https://www.realtor.com/realestateandhomes-detail/9800-S-Oakley-Ave_Chicago_IL_60643_M76273-12749,475000.0,"9800 S Oakley Ave, Chicago, IL 60643",FOR_SALE,2600.0,4,3,41.715412,-87.679825
https://www.realtor.com/,7612246119,https://www.realtor.com/realestateandhomes-detail/3901-N-Plainfield-Ave_Chicago_IL_60634_M76122-46119,850000.0,"3901 N Plainfield Ave, Chicago, IL 60634",FOR_SALE,4000.0,3,3.5,41.950447,-87.833844
https://www.realtor.com/,7122549929,https://www.realtor.com/realestateandhomes-detail/10440-S-Seeley-Ave_Chicago_IL_60643_M71225-49929,525000.0,"10440 S Seeley Ave, Chicago, IL 60643",FOR_SALE,2600.0,4,2,41.703482,-87.673334
https://www.realtor.com/,8848461525,https://www.realtor.com/realestateandhomes-detail/210-N-Lockwood-Ave_Chicago_IL_60644_M88484-61525,174900.0,"210 N Lockwood Ave, Chicago, IL 60644",FOR_SALE,1968.0,3,3,41.884693,-87.758027
https://www.realtor.com/,7717993321,https://www.realtor.com/realestateandhomes-detail/904-S-Claremont-Ave_Chicago_IL_60612_M77179-93321,765000.0,"904 S Claremont St, Chicago, IL 60612",FOR_SALE,1898.0,3,3.5,41.870041,-87.685259
https://www.realtor.com/,8032962652,https://www.realtor.com/realestateandhomes-detail/1806-N-Wood-St_Chicago_IL_60622_M80329-62652,3500000.0,"1806 N Wood St, Chicago, IL 60622",FOR_SALE,8960.0,6,5.5,41.914465,-87.672991
https://www.realtor.com/,7778828886,https://www.realtor.com/realestateandhomes-detail/4624-N-Kenton-Ave_Chicago_IL_60630_M77788-28886,890000.0,"4624 N Kenton Ave, Chicago, IL 60630",FOR_SALE,3120.0,4,3.5,41.965194,-87.743108
https://www.realtor.com/,8736838990,https://www.realtor.com/realestateandhomes-detail/9515-S-Greenwood-Ave_Chicago_IL_60628_M87368-38990,115500.0,"9515 S Greenwood Ave, Chicago, IL 60628",FOR_SALE,1344.0,4,1.5,41.721584,-87.596843
https://www.realtor.com/,7298270404,https://www.realtor.com/realestateandhomes-detail/2317-N-Lockwood-Ave_Chicago_IL_60639_M72982-70404,299900.0,"2317 N Lockwood Ave, Chicago, IL 60639",FOR_SALE,2000.0,3,2.5,41.922825,-87.758215
https://www.realtor.com/,7906139679,https://www.realtor.com/realestateandhomes-detail/7521-S-Parnell-Ave_Chicago_IL_60620_M79061-39679,115000.0,"7521 S Parnell Ave, Chicago, IL 60620",FOR_SALE,1580.0,4,1.5,41.757325,-87.638056
https://www.realtor.com/,8365089541,https://www.realtor.com/realestateandhomes-detail/2921-W-Estes-Ave_Chicago_IL_60645_M83650-89541,699000.0,"2921 W Estes Ave, Chicago, IL 60645",FOR_SALE,3524.0,4,3.5,42.009934,-87.703022
https://www.realtor.com/,7341831142,https://www.realtor.com/realestateandhomes-detail/2500-N-New-England-Ave_Chicago_IL_60707_M73418-31142,319900.0,"2500 N New England Ave, Chicago, IL 60707",FOR_SALE,1009.0,2,2,41.925526,-87.798086
https://www.realtor.com/,8522103367,https://www.realtor.com/realestateandhomes-detail/14336-S-Hoxie-Ave_Chicago_IL_60633_M85221-03367,189000.0,"14336 S Hoxie Ave, Burnham, IL 60633",FOR_SALE,1500.0,3,2,41.634128,-87.560781
https://www.realtor.com/,8916132625,https://www.realtor.com/realestateandhomes-detail/7537-S-Clyde-Ave_Chicago_IL_60649_M89161-32625,145000.0,"7537 S Clyde Ave, Chicago, IL 60649",FOR_SALE,1200.0,3,1.5,41.757829,-87.573325
https://www.realtor.com/,8200385447,https://www.realtor.com/realestateandhomes-detail/6621-W-Schreiber-Ave_Chicago_IL_60631_M82003-85447,999900.0,"6621 W Schreiber Ave, Chicago, IL 60631",FOR_SALE,4000.0,3,3.5,41.997972,-87.793228
https://www.realtor.com/,7570612692,https://www.realtor.com/realestateandhomes-detail/1112-N-Central-Ave_Chicago_IL_60651_M75706-12692,249900.0,"1112 N Central Ave, Chicago, IL 60651",FOR_SALE,1800.0,4,2.5,41.900771,-87.765915
https://www.realtor.com/,8983885257,https://www.realtor.com/realestateandhomes-detail/9700-S-Torrence-Ave_Chicago_IL_60617_M89838-85257,99900.0,"9700 S Torrence Ave, Chicago, IL 60617",FOR_SALE,1800.0,3,1,41.718857,-87.560202
https://www.realtor.com/,7905287087,https://www.realtor.com/realestateandhomes-detail/5441-N-Kildare-Ave_Chicago_IL_60630_M79052-87087,799900.0,"5441 N Kildare Ave, Chicago, IL 60630",FOR_SALE,4000.0,4,3.5,41.980492,-87.735644
https://www.realtor.com/,7789502354,https://www.realtor.com/realestateandhomes-detail/5729-S-Homan-Ave_Chicago_IL_60629_M77895-02354,176000.0,"5729 S Homan Ave, Chicago, IL 60629",FOR_SALE,828.0,2,1,41.788947,-87.707975
https://www.realtor.com/,8225753405,https://www.realtor.com/realestateandhomes-detail/5926-W-Dakin-St_Chicago_IL_60634_M82257-53405,440000.0,"5926 W Dakin St, Chicago, IL 60634",FOR_SALE,1732.0,3,1,41.952385,-87.775416
https://www.realtor.com/,7548449974,https://www.realtor.com/realestateandhomes-detail/5833-N-Virginia-Ave_Chicago_IL_60659_M75484-49974,429500.0,"5833 N Virginia Ave, Chicago, IL 60659",FOR_SALE,2600.0,3,2,41.98774,-87.706149
https://www.realtor.com/,7999947686,https://www.realtor.com/realestateandhomes-detail/3903-N-Kostner-Ave_Chicago_IL_60641_M79999-47686,1774900.0,"3903 N Kostner Ave, Chicago, IL 60641",FOR_SALE,6934.0,5,5.5,41.95188,-87.73765
https://www.realtor.com/,7206748398,https://www.realtor.com/realestateandhomes-detail/1871-N-Howe-St_Chicago_IL_60614_M72067-48398,6500000.0,"1871 N Howe St, Chicago, IL 60614",FOR_SALE,10700.0,5,5.5+,41.915878,-87.644458
https://www.realtor.com/,7273963563,https://www.realtor.com/realestateandhomes-detail/5215-W-Winona-St_Chicago_IL_60630_M72739-63563,494500.0,"5215 W Winona St, Chicago, IL 60630",FOR_SALE,2100.0,4,3,41.97404,-87.758408
https://www.realtor.com/,7689977800,https://www.realtor.com/realestateandhomes-detail/5107-N-Marmora-Ave_Chicago_IL_60630_M76899-77800,799900.0,"5107 N Marmora Ave, Chicago, IL 60630",FOR_SALE,3483.0,5,4,41.974165,-87.775439
https://www.realtor.com/,8529403120,https://www.realtor.com/realestateandhomes-detail/8443-S-Kenwood-Ave_Chicago_IL_60619_M85294-03120,274000.0,"8443 S Kenwood Ave, Chicago, IL 60619",FOR_SALE,1100.0,3,2,41.741039,-87.591122
https://www.realtor.com/,7909333178,https://www.realtor.com/realestateandhomes-detail/8106-S-Rhodes-Ave_Chicago_IL_60619_M79093-33178,329900.0,"8106 S Rhodes Ave, Chicago, IL 60619",FOR_SALE,2500.0,4,3.5,41.747224,-87.611534
https://www.realtor.com/,7434674942,https://www.realtor.com/realestateandhomes-detail/10228-S-Prospect-Ave_Chicago_IL_60643_M74346-74942,650000.0,"10228 S Prospect Ave, Chicago, IL 60643",FOR_SALE,1780.0,4,2,41.707396,-87.662659
https://www.realtor.com/,7170251038,https://www.realtor.com/realestateandhomes-detail/6826-S-Cregier-Ave_Chicago_IL_60649_M71702-51038,675000.0,"6826 S Cregier Ave, Chicago, IL 60649",FOR_SALE,3782.0,3,4.5,41.770719,-87.581707
https://www.realtor.com/,8477137896,https://www.realtor.com/realestateandhomes-detail/1228-E-87th-Pl_Chicago_IL_60619_M84771-37896,169900.0,"1228 E 87th Pl, Chicago, IL 60619",FOR_SALE,1075.0,3,2,41.736153,-87.593895
https://www.realtor.com/,8147089371,https://www.realtor.com/realestateandhomes-detail/3430-W-Lyndale-St_Chicago_IL_60647_M81470-89371,359000.0,"3430 W Lyndale St, Chicago, IL 60647",FOR_SALE,1344.0,3,2,41.922167,-87.713283
https://www.realtor.com/,7852185595,https://www.realtor.com/realestateandhomes-detail/6549-S-Albany-Ave_Chicago_IL_60629_M78521-85595,315000.0,"6549 S Albany Ave, Chicago, IL 60629",FOR_SALE,2031.0,5,2,41.773887,-87.700219
https://www.realtor.com/,8388832318,https://www.realtor.com/realestateandhomes-detail/2420-N-Rutherford-Ave_Chicago_IL_60707_M83888-32318,275000.0,"2420 N Rutherford Ave, Chicago, IL 60707",FOR_SALE,1757.0,3,3,41.924302,-87.794391
https://www.realtor.com/,7178240471,https://www.realtor.com/realestateandhomes-detail/8218-S-Kingston-Ave_Chicago_IL_60617_M71782-40471,240000.0,"8218 S Kingston Ave, Chicago, IL 60617",FOR_SALE,1631.0,3,1.5,41.745692,-87.562845
https://www.realtor.com/,8471635835,https://www.realtor.com/realestateandhomes-detail/2125-E-93rd-St_Chicago_IL_60617_M84716-35835,249900.0,"2125 E 93rd St, Chicago, IL 60617",FOR_SALE,1800.0,2,2,41.725878,-87.571977
https://www.realtor.com/,8193498065,https://www.realtor.com/realestateandhomes-detail/2308-W-Adams-St_Chicago_IL_60612_M81934-98065,399999.0,"2308 W Adams St, Chicago, IL 60612",FOR_SALE,2680.0,4,3,41.878868,-87.684364
https://www.realtor.com/,7454774064,https://www.realtor.com/realestateandhomes-detail/2958-N-Oak-Park-Ave_Chicago_IL_60634_M74547-74064,325000.0,"2958 N Oak Park Ave, Chicago, IL 60634",FOR_SALE,1072.0,2,2,41.934389,-87.79593
https://www.realtor.com/,8050603475,https://www.realtor.com/realestateandhomes-detail/2219-N-Major-Ave_Chicago_IL_60639_M80506-03475,274900.0,"2219 N Major Ave, Chicago, IL 60639",FOR_SALE,750.0,2,1,41.920918,-87.767961
https://www.realtor.com/,9743104976,https://www.realtor.com/realestateandhomes-detail/1500-N-Lake-Shore-Dr_Chicago_IL_60610_M97431-04976,8500000.0,"1500 N Lake Shore Dr Unit Ph, Chicago, IL 60610",FOR_SALE,8000.0,6,6.5,41.909822,-87.626719
https://www.realtor.com/,7457256880,https://www.realtor.com/realestateandhomes-detail/628-E-90th-Pl_Chicago_IL_60619_M74572-56880,100000.0,"628 E 90th Pl, Chicago, IL 60619",FOR_SALE,927.0,2,2,41.730464,-87.608348
https://www.realtor.com/,8839423051,https://www.realtor.com/realestateandhomes-detail/4142-N-Mango-Ave_Chicago_IL_60634_M88394-23051,399000.0,"4142 N Mango Ave, Chicago, IL 60634",FOR_SALE,1600.0,4,3,41.956193,-87.771124
https://www.realtor.com/,7580200374,https://www.realtor.com/realestateandhomes-detail/7923-S-Princeton-Ave_Chicago_IL_60620_M75802-00374,199500.0,"7923 S Princeton Ave, Chicago, IL 60620",FOR_SALE,1200.0,3,1.5,41.750119,-87.631508
