Data Source,ID,Post link,Price,Address,Status,Area,Bedrooms,Bathrooms,Latitude,Longitude
https://www.realtor.com/,8692627061,https://www.realtor.com/realestateandhomes-detail/1457-W-Byron-St_Chicago_IL_60613_M86926-27061,1450000.0,"1457 W Byron St, Chicago, IL 60613",SOLD,3300.0,3.0,3.5,41.952312,-87.666381
https://www.realtor.com/,8327979815,https://www.realtor.com/realestateandhomes-detail/2735-W-Saint-Georges-Ct_Chicago_IL_60647_M83279-79815,350000.0,"2735 W Saint Georges Ct, Chicago, IL 60647",SOLD,900.0,2.0,1,41.921132,-87.696639
https://www.realtor.com/,7515398232,https://www.realtor.com/realestateandhomes-detail/5405-W-Ardmore-Ave_Chicago_IL_60646_M75153-98232,715000.0,"5405 W Ardmore Ave, Chicago, IL 60646",SOLD,2200.0,6.0,3,41.985516,-87.763739
https://www.realtor.com/,9484646484,https://www.realtor.com/realestateandhomes-detail/3915-N-Monticello-Ave_Chicago_IL_60618_M94846-46484,950000.0,"3915 N Monticello Ave, Chicago, IL 60618",SOLD,3200.0,3.0,3.5,41.952424,-87.718648
https://www.realtor.com/,8499198111,https://www.realtor.com/realestateandhomes-detail/8205-S-Troy-St_Chicago_IL_60652_M84991-98111,295000.0,"8205 S Troy St, Chicago, IL 60652",SOLD,1200.0,3.0,2,41.744117,-87.700664
https://www.realtor.com/,7638203850,https://www.realtor.com/realestateandhomes-detail/10330-S-Whipple-St_Chicago_IL_60655_M76382-03850,250000.0,"10330 S Whipple St, Chicago, IL 60655",SOLD,926.0,2.0,1,41.705251,-87.698129
https://www.realtor.com/,7710814353,https://www.realtor.com/realestateandhomes-detail/9416-S-Michigan-Ave_Chicago_IL_60619_M77108-14353,168900.0,"9416 S Michigan Ave, Chicago, IL 60619",SOLD,1229.0,2.0,1.5+,41.723018,-87.6211
https://www.realtor.com/,7712196342,https://www.realtor.com/realestateandhomes-detail/455-W-126th-Pl_Chicago_IL_60628_M77121-96342,149999.0,"455 W 126th Pl, Chicago, IL 60628",SOLD,973.0,2.0,1,41.663994,-87.633883
https://www.realtor.com/,8471566378,https://www.realtor.com/realestateandhomes-detail/4232-S-Washtenaw-Ave_Chicago_IL_60632_M84715-66378,249000.0,"4232 S Washtenaw Ave, Chicago, IL 60632",SOLD,640.0,3.0,2,41.816382,-87.692351
https://www.realtor.com/,7087032337,https://www.realtor.com/realestateandhomes-detail/414-E-90th-St_Chicago_IL_60619_M70870-32337,54020.0,"414 E 90th St, Chicago, IL 60619",SOLD,1030.0,3.0,1,41.731313,-87.613674
https://www.realtor.com/,7198220794,https://www.realtor.com/realestateandhomes-detail/1828-N-Orleans-St_Chicago_IL_60614_M71982-20794,2250000.0,"1828 N Orleans St, Chicago, IL 60614",SOLD,4961.0,4.0,5.5,41.915619,-87.637858
https://www.realtor.com/,8439968710,https://www.realtor.com/realestateandhomes-detail/1810-N-Wolcott-Ave_Chicago_IL_60622_M84399-68710,1995000.0,"1810 N Wolcott Ave, Chicago, IL 60622",SOLD,4000.0,5.0,3.5,41.914541,-87.675468
https://www.realtor.com/,8976070965,https://www.realtor.com/realestateandhomes-detail/5342-N-Lovejoy-Ave_Chicago_IL_60630_M89760-70965,525000.0,"5342 N Lovejoy Ave, Chicago, IL 60630",SOLD,1676.0,3.0,2,41.978901,-87.769638
https://www.realtor.com/,9927303303,https://www.realtor.com/realestateandhomes-detail/3314-N-Leavitt-St_Chicago_IL_60618_M99273-03303,2015000.0,"3314 N Leavitt St, Chicago, IL 60618",SOLD,4200.0,6.0,4.5+,41.941867,-87.683617
https://www.realtor.com/,7038283225,https://www.realtor.com/realestateandhomes-detail/13459-S-Avenue-M_Chicago_IL_60633_M70382-83225,249900.0,"13459 S Avenue M, Chicago, IL 60633",SOLD,1400.0,3.0,1,41.650145,-87.537107
https://www.realtor.com/,7820886544,https://www.realtor.com/realestateandhomes-detail/3346-N-Nottingham-Ave_Chicago_IL_60634_M78208-86544,419900.0,"3346 N Nottingham Ave, Chicago, IL 60634",SOLD,2130.0,4.0,2,41.941207,-87.804738
https://www.realtor.com/,7421413525,https://www.realtor.com/realestateandhomes-detail/4030-N-Harding-Ave_Chicago_IL_60618_M74214-13525,1099000.0,"4030 N Harding Ave, Chicago, IL 60618",SOLD,3700.0,4.0,3.5,41.954676,-87.726788
https://www.realtor.com/,7018436039,https://www.realtor.com/realestateandhomes-detail/5443-N-Lowell-Ave_Chicago_IL_60630_M70184-36039,750000.0,"5443 N Lowell Ave, Chicago, IL 60630",SOLD,3095.0,3.0,2.5,41.980763,-87.736969
https://www.realtor.com/,7398175840,https://www.realtor.com/realestateandhomes-detail/1420-W-109th-Pl_Chicago_IL_60643_M73981-75840,240000.0,"1420 W 109th Pl, Chicago, IL 60643",SOLD,1900.0,3.0,2,41.695164,-87.657974
https://www.realtor.com/,7448265272,https://www.realtor.com/realestateandhomes-detail/1850-N-Wilmot-Ave_Chicago_IL_60647_M74482-65272,985000.0,"1850 N Wilmot Ave, Chicago, IL 60647",SOLD,2670.0,4.0,3,41.915387,-87.684086
https://www.realtor.com/,8025923974,https://www.realtor.com/realestateandhomes-detail/6309-N-Canfield-Ave_Chicago_IL_60631_M80259-23974,650000.0,"6309 N Canfield Ave, Chicago, IL 60631",SOLD,3200.0,4.0,3,41.995336,-87.821457
https://www.realtor.com/,7550570645,https://www.realtor.com/realestateandhomes-detail/7137-N-Ozanam-Ave_Chicago_IL_60631_M75505-70645,489000.0,"7137 N Ozanam Ave, Chicago, IL 60631",SOLD,1368.0,3.0,2.5,42.010348,-87.820894
https://www.realtor.com/,7524782768,https://www.realtor.com/realestateandhomes-detail/5714-S-Kimbark-Ave_Chicago_IL_60637_M75247-82768,1375000.0,"5714 S Kimbark Ave, Chicago, IL 60637",SOLD,3000.0,5.0,4,41.790996,-87.595277
https://www.realtor.com/,7143156252,https://www.realtor.com/realestateandhomes-detail/2437-N-Meade-Ave_Chicago_IL_60639_M71431-56252,325000.0,"2437 N Meade Ave, Chicago, IL 60639",SOLD,1500.0,4.0,1.5,41.924889,-87.777837
https://www.realtor.com/,8395733334,https://www.realtor.com/realestateandhomes-detail/8749-S-Union-Ave_Chicago_IL_60620_M83957-33334,220000.0,"8749 S Union Ave, Chicago, IL 60620",SOLD,1772.0,2.0,2,41.73446,-87.64079
https://www.realtor.com/,8802986038,https://www.realtor.com/realestateandhomes-detail/10817-S-Church-St_Chicago_IL_60643_M88029-86038,146200.0,"10817 S Church St, Chicago, IL 60643",SOLD,1200.0,3.0,2,41.696991,-87.661009
https://www.realtor.com/,8461240043,https://www.realtor.com/realestateandhomes-detail/2137-N-Sayre-Ave_Chicago_IL_60707_M84612-40043,479000.0,"2137 N Sayre Ave, Chicago, IL 60707",SOLD,1400.0,3.0,2,41.919177,-87.800089
https://www.realtor.com/,7085882870,https://www.realtor.com/realestateandhomes-detail/5307-S-Neenah-Ave_Chicago_IL_60638_M70858-82870,429900.0,"5307 S Neenah Ave, Chicago, IL 60638",SOLD,1900.0,3.0,2,41.795698,-87.785223
https://www.realtor.com/,7427029829,https://www.realtor.com/realestateandhomes-detail/5259-S-New-England-Ave_Chicago_IL_60638_M74270-29829,349800.0,"5259 S New England Ave, Chicago, IL 60638",SOLD,1068.0,3.0,2,41.796001,-87.793759
https://www.realtor.com/,7795963883,https://www.realtor.com/realestateandhomes-detail/10119-S-Princeton-Ave_Chicago_IL_60628_M77959-63883,294900.0,"10119 S Princeton Ave, Chicago, IL 60628",SOLD,1150.0,4.0,2,41.710105,-87.630442
https://www.realtor.com/,7422481458,https://www.realtor.com/realestateandhomes-detail/5348-S-New-England-Ave_Chicago_IL_60638_M74224-81458,299900.0,"5348 S New England Ave, Chicago, IL 60638",SOLD,1250.0,3.0,1.5,41.79441,-87.794431
https://www.realtor.com/,8255989199,https://www.realtor.com/realestateandhomes-detail/2028-W-53rd-Pl_Chicago_IL_60609_M82559-89199,119900.0,"2028 W 53rd Pl, Chicago, IL 60609",SOLD,969.0,2.0,1,41.796911,-87.6756
https://www.realtor.com/,8924905346,https://www.realtor.com/realestateandhomes-detail/1401-N-Massasoit-Ave_Chicago_IL_60651_M89249-05346,199900.0,"1401 N Massasoit Ave, Chicago, IL 60651",SOLD,2368.0,3.0,2.5,41.905845,-87.769076
https://www.realtor.com/,7338430311,https://www.realtor.com/realestateandhomes-detail/10538-S-Wallace-St_Chicago_IL_60628_M73384-30311,165000.0,"10538 S Wallace St, Chicago, IL 60628",SOLD,2125.0,3.0,2.5,41.702151,-87.638185
https://www.realtor.com/,8486294649,https://www.realtor.com/realestateandhomes-detail/8042-S-Michigan-Ave_Chicago_IL_60619_M84862-94649,285000.0,"8042 S Michigan Ave, Chicago, IL 60619",SOLD,1777.0,4.0,2,41.74797,-87.621778
https://www.realtor.com/,8785632369,https://www.realtor.com/realestateandhomes-detail/11128-S-Talman-Ave_Chicago_IL_60655_M87856-32369,250000.0,"11128 S Talman Ave, Chicago, IL 60655",SOLD,1200.0,2.0,1,41.690824,-87.687629
https://www.realtor.com/,7670936646,https://www.realtor.com/realestateandhomes-detail/7146-S-Maplewood-Ave_Chicago_IL_60629_M76709-36646,120000.0,"7146 S Maplewood Ave, Chicago, IL 60629",SOLD,1600.0,4.0,2,41.763268,-87.687229
https://www.realtor.com/,7385986025,https://www.realtor.com/realestateandhomes-detail/13411-S-Carondolet-Ave_Chicago_IL_60633_M73859-86025,169000.0,"13411 S Carondolet Ave, Chicago, IL 60633",SOLD,1040.0,3.0,1.5,41.651458,-87.549238
https://www.realtor.com/,8520670295,https://www.realtor.com/realestateandhomes-detail/45-N-Austin-Blvd_Chicago_IL_60644_M85206-70295,349000.0,"45 N Austin Blvd, Chicago, IL 60644",SOLD,6795.0,4.0,3,41.881476,-87.774282
https://www.realtor.com/,7899412397,https://www.realtor.com/realestateandhomes-detail/2905-W-Chase-Ave_Chicago_IL_60645_M78994-12397,600000.0,"2905 W Chase Ave, Chicago, IL 60645",SOLD,1600.0,4.0,2.5,42.013566,-87.702341
https://www.realtor.com/,8978471361,https://www.realtor.com/realestateandhomes-detail/9137-S-Saginaw-Ave_Chicago_IL_60617_M89784-71361,154900.0,"9137 S Saginaw Ave, Chicago, IL 60617",SOLD,1200.0,3.0,1,41.728836,-87.559119
https://www.realtor.com/,8909667947,https://www.realtor.com/realestateandhomes-detail/6615-S-Richmond-St_Chicago_IL_60629_M89096-67947,230000.0,"6615 S Richmond St, Chicago, IL 60629",SOLD,1124.0,3.0,2,41.773077,-87.696549
https://www.realtor.com/,7564556901,https://www.realtor.com/realestateandhomes-detail/2055-W-50th-St_Chicago_IL_60609_M75645-56901,150000.0,"2055 W 50th St, Chicago, IL 60609",SOLD,2975.0,4.0,2,41.802778,-87.676726
https://www.realtor.com/,8884952403,https://www.realtor.com/realestateandhomes-detail/9349-S-Woodlawn-Ave_Chicago_IL_60619_M88849-52403,119000.0,"9349 S Woodlawn Ave, Chicago, IL 60619",SOLD,864.0,2.0,1,41.724409,-87.594495
https://www.realtor.com/,7598653496,https://www.realtor.com/realestateandhomes-detail/6045-W-Fletcher-St_Chicago_IL_60634_M75986-53496,330000.0,"6045 W Fletcher St, Chicago, IL 60634",SOLD,1290.0,3.0,1,41.937247,-87.777972
https://www.realtor.com/,7388448207,https://www.realtor.com/realestateandhomes-detail/8112-S-Talman-Ave_Chicago_IL_60652_M73884-48207,199000.0,"8112 S Talman Ave, Chicago, IL 60652",SOLD,1518.0,4.0,1.5,41.745891,-87.689217
https://www.realtor.com/,7204065250,https://www.realtor.com/realestateandhomes-detail/2132-W-Agatite-Ave_Chicago_IL_60625_M72040-65250,800000.0,"2132 W Agatite Ave, Chicago, IL 60625",SOLD,1459.0,3.0,1.5,41.962563,-87.68285
https://www.realtor.com/,7520217766,https://www.realtor.com/realestateandhomes-detail/5122-S-Woodlawn-Ave_Chicago_IL_60615_M75202-17766,1895000.0,"5122 S Woodlawn Ave, Chicago, IL 60615",SOLD,4144.0,4.0,4.5,41.801614,-87.597116
https://www.realtor.com/,8005124260,https://www.realtor.com/realestateandhomes-detail/1960-N-Orchard-St_Chicago_IL_60614_M80051-24260,3249000.0,"1960 N Orchard St, Chicago, IL 60614",SOLD,6000.0,5.0,4.5,41.917751,-87.646435
https://www.realtor.com/,8793178982,https://www.realtor.com/realestateandhomes-detail/9118-S-Winchester-Ave_Chicago_IL_60643_M87931-78982,600000.0,"9118 S Winchester Ave, Chicago, IL 60643",SOLD,1505.0,3.0,2,41.727654,-87.671829
https://www.realtor.com/,8767553312,https://www.realtor.com/realestateandhomes-detail/9916-S-Winchester-Ave_Chicago_IL_60643_M87675-53312,529000.0,"9916 S Winchester Ave, Chicago, IL 60643",SOLD,2959.0,3.0,2.5,41.713255,-87.670984
https://www.realtor.com/,7235207837,https://www.realtor.com/realestateandhomes-detail/5616-S-Natoma-Ave_Chicago_IL_60638_M72352-07837,399900.0,"5616 S Natoma Ave, Chicago, IL 60638",SOLD,1562.0,4.0,2,41.78982,-87.788192
https://www.realtor.com/,7027051655,https://www.realtor.com/realestateandhomes-detail/2062-N-Oakley-Ave_Chicago_IL_60647_M70270-51655,1995000.0,"2062 N Oakley Ave, Chicago, IL 60647",SOLD,4500.0,4.0,4.5,41.919427,-87.685327
https://www.realtor.com/,8459827086,https://www.realtor.com/realestateandhomes-detail/4940-N-Newland-Ave_Chicago_IL_60656_M84598-27086,549900.0,"4940 N Newland St, Chicago, IL 60656",SOLD,1400.0,4.0,3,41.971353,-87.800427
https://www.realtor.com/,8726395967,https://www.realtor.com/realestateandhomes-detail/7114-W-64th-St_Chicago_IL_60638_M87263-95967,410000.0,"7114 W 64th St, Chicago, IL 60638",SOLD,1700.0,2.0,2,41.775825,-87.799093
https://www.realtor.com/,8721806294,https://www.realtor.com/realestateandhomes-detail/1528-W-Henderson-St_Chicago_IL_60657_M87218-06294,2200000.0,"1528 W Henderson St, Chicago, IL 60657",SOLD,5200.0,7.0,4.5,41.942714,-87.667504
https://www.realtor.com/,9576892446,https://www.realtor.com/realestateandhomes-detail/2032-W-Pensacola-Ave_Chicago_IL_60618_M95768-92446,2450000.0,"2032 W Pensacola Ave, Chicago, IL 60618",SOLD,5900.0,6.0,6.5+,41.960668,-87.680228
https://www.realtor.com/,7057281000,https://www.realtor.com/realestateandhomes-detail/5204-W-Eddy-St_Chicago_IL_60641_M70572-81000,374999.0,"5204 W Eddy St, Chicago, IL 60641",SOLD,1600.0,3.0,2.5,41.945346,-87.757252
https://www.realtor.com/,7282271942,https://www.realtor.com/realestateandhomes-detail/1900-N-Albany-Ave_Chicago_IL_60647_M72822-71942,775000.0,"1900 N Albany Ave, Chicago, IL 60647",SOLD,2500.0,3.0,2,41.915714,-87.705579
https://www.realtor.com/,8855547588,https://www.realtor.com/realestateandhomes-detail/1358-N-State-Pkwy_Chicago_IL_60610_M88555-47588,2950000.0,"1358 N State Pkwy, Chicago, IL 60610",SOLD,4950.0,5.0,5.5,41.907523,-87.629141
https://www.realtor.com/,8132112315,https://www.realtor.com/realestateandhomes-detail/4016-W-Belle-Plaine-Ave_Chicago_IL_60641_M81321-12315,799000.0,"4016 W Belle Plaine Ave, Chicago, IL 60641",SOLD,3300.0,4.0,4,41.955765,-87.728464
https://www.realtor.com/,8589648332,https://www.realtor.com/realestateandhomes-detail/2614-W-Evergreen-Ave_Chicago_IL_60622_M85896-48332,925000.0,"2614 W Evergreen Ave, Chicago, IL 60622",SOLD,3600.0,5.0,3.5,41.905966,-87.692716
https://www.realtor.com/,8480707386,https://www.realtor.com/realestateandhomes-detail/3521-W-Ardmore-Ave_Chicago_IL_60659_M84807-07386,749900.0,"3521 W Ardmore Ave, Chicago, IL 60659",SOLD,3500.0,4.0,3.5,41.986442,-87.717176
https://www.realtor.com/,7802957285,https://www.realtor.com/realestateandhomes-detail/5643-S-Sacramento-Ave_Chicago_IL_60629_M78029-57285,360000.0,"5643 S Sacramento Ave, Chicago, IL 60629",SOLD,2218.0,4.0,2.5,41.790502,-87.69824
https://www.realtor.com/,7365774250,https://www.realtor.com/realestateandhomes-detail/7230-W-Ibsen-St_Chicago_IL_60631_M73657-74250,459900.0,"7230 W Ibsen St, Chicago, IL 60631",SOLD,1440.0,3.0,1.5,42.00653,-87.807912
https://www.realtor.com/,7685789493,https://www.realtor.com/realestateandhomes-detail/5019-N-Kildare-Ave_Chicago_IL_60630_M76857-89493,624500.0,"5019 N Kildare Ave, Chicago, IL 60630",SOLD,3600.0,4.0,3,41.972433,-87.735196
https://www.realtor.com/,8840523879,https://www.realtor.com/realestateandhomes-detail/161-N-Lorel-Ave_Chicago_IL_60644_M88405-23879,200000.0,"161 N Lorel Ave, Chicago, IL 60644",SOLD,1968.0,3.0,1.5,41.884138,-87.758525
https://www.realtor.com/,8144140990,https://www.realtor.com/realestateandhomes-detail/3331-N-Natchez-Ave_Chicago_IL_60634_M81441-40990,350000.0,"3331 N Natchez Ave, Chicago, IL 60634",SOLD,1496.0,4.0,3,41.940958,-87.788239
https://www.realtor.com/,8929170110,https://www.realtor.com/realestateandhomes-detail/1416-W-Diversey-Pkwy_Chicago_IL_60614_M89291-70110,750000.0,"1416 W Diversey Pkwy, Chicago, IL 60614",SOLD,2000.0,3.0,2,41.932729,-87.664295
https://www.realtor.com/,8583767770,https://www.realtor.com/realestateandhomes-detail/4807-S-Saint-Lawrence-Ave_Chicago_IL_60615_M85837-67770,725000.0,"4807 S Saint Lawrence Ave, Chicago, IL 60615",SOLD,3100.0,3.0,3.5,41.807389,-87.611051
https://www.realtor.com/,8806771788,https://www.realtor.com/realestateandhomes-detail/6153-N-Leader-Ave_Chicago_IL_60646_M88067-71788,498000.0,"6153 N Leader Ave, Chicago, IL 60646",SOLD,1585.0,3.0,1.5,41.99265,-87.75277
https://www.realtor.com/,8915298253,https://www.realtor.com/realestateandhomes-detail/9338-S-East-End-Ave_Chicago_IL_60617_M89152-98253,264900.0,"9338 S East End Ave, Chicago, IL 60617",SOLD,2420.0,4.0,2,41.724798,-87.582954
https://www.realtor.com/,8832504701,https://www.realtor.com/realestateandhomes-detail/9324-S-Kenwood-Ave_Chicago_IL_60619_M88325-04701,219900.0,"9324 S Kenwood Ave, Chicago, IL 60619",SOLD,1400.0,3.0,2,41.7251,-87.591679
https://www.realtor.com/,7331667689,https://www.realtor.com/realestateandhomes-detail/6646-N-Loron-Ave_Chicago_IL_60646_M73316-67689,625000.0,"6646 N Loron Ave, Chicago, IL 60646",SOLD,3149.0,3.0,2.5,42.002417,-87.774166
https://www.realtor.com/,7411405250,https://www.realtor.com/realestateandhomes-detail/10846-S-Normal-Ave_Chicago_IL_60628_M74114-05250,259000.0,"10846 S Normal Ave, Chicago, IL 60628",SOLD,2736.0,5.0,3,41.69651,-87.635613
https://www.realtor.com/,7442910655,https://www.realtor.com/realestateandhomes-detail/6332-S-Evans-Ave_Chicago_IL_60637_M74429-10655,719000.0,"6332 S Evans Ave, Chicago, IL 60637",SOLD,3800.0,5.0,3.5,41.779384,-87.607508
https://www.realtor.com/,8636206792,https://www.realtor.com/realestateandhomes-detail/4841-N-Mont-Clare-Ave_Chicago_IL_60656_M86362-06792,375000.0,"4841 N Mont Clare Ave, Chicago, IL 60656",SOLD,1200.0,3.0,2.5,41.969518,-87.804488
https://www.realtor.com/,7109679361,https://www.realtor.com/realestateandhomes-detail/8409-S-Maryland-Ave_Chicago_IL_60619_M71096-79361,284900.0,"8409 S Maryland Ave, Chicago, IL 60619",SOLD,2100.0,4.0,2,41.741775,-87.603401
https://www.realtor.com/,7117143402,https://www.realtor.com/realestateandhomes-detail/2026-N-Kenneth-Ave_Chicago_IL_60639_M71171-43402,369000.0,"2026 N Kenneth Ave, Chicago, IL 60639",SOLD,2351.0,7.0,3,41.917885,-87.737936
https://www.realtor.com/,7079734325,https://www.realtor.com/realestateandhomes-detail/5147-S-Nashville-Ave_Chicago_IL_60638_M70797-34325,575000.0,"5147 S Nashville Ave, Chicago, IL 60638",SOLD,2214.0,5.0,4,41.798166,-87.786515
https://www.realtor.com/,8170466490,https://www.realtor.com/realestateandhomes-detail/2053-N-Natchez-Ave_Chicago_IL_60707_M81704-66490,250000.0,"2053 N Natchez Ave, Chicago, IL 60707",SOLD,1019.0,2.0,1,41.917936,-87.787366
https://www.realtor.com/,8139562874,https://www.realtor.com/realestateandhomes-detail/4843-W-Kamerling-Ave_Chicago_IL_60651_M81395-62874,139900.0,"4843 W Kamerling Ave, Chicago, IL 60651",SOLD,1737.0,5.0,3,41.904798,-87.747702
https://www.realtor.com/,9525724057,https://www.realtor.com/realestateandhomes-detail/4800-S-Lake-Park-Ave-Apt-2404_Chicago_IL_60615_M95257-24057,30000.0,"4800 S Lake Park Ave Unit 2404A, Chicago, IL 60615",SOLD,800.0,1.0,1,41.807762,-87.591148
https://www.realtor.com/,7498612630,https://www.realtor.com/realestateandhomes-detail/5731-S-Seeley-Ave_Chicago_IL_60636_M74986-12630,75000.0,"5731 S Seeley Ave, Chicago, IL 60636",SOLD,1056.0,4.0,2,41.789317,-87.675043
https://www.realtor.com/,8050329315,https://www.realtor.com/realestateandhomes-detail/5122-W-Windsor-Ave_Chicago_IL_60630_M80503-29315,325000.0,"5122 W Windsor Ave, Chicago, IL 60630",SOLD,3234.0,4.0,3,41.963615,-87.755905
https://www.realtor.com/,7260356939,https://www.realtor.com/realestateandhomes-detail/5731-S-Loomis-Blvd_Chicago_IL_60636_M72603-56939,80000.0,"5731 S Loomis Blvd, Chicago, IL 60636",SOLD,1191.0,3.0,1,41.78952,-87.659269
https://www.realtor.com/,8383716031,https://www.realtor.com/realestateandhomes-detail/8353-S-Hermitage-Ave_Chicago_IL_60620_M83837-16031,70000.0,"8353 S Hermitage Ave, Chicago, IL 60620",SOLD,1600.0,3.0,2,41.741459,-87.666508
https://www.realtor.com/,7787369972,https://www.realtor.com/realestateandhomes-detail/9944-S-Prospect-Ave_Chicago_IL_60643_M77873-69972,200000.0,"9944 S Prospect Ave, Chicago, IL 60643",SOLD,1836.0,3.0,1.5,41.712647,-87.663301
https://www.realtor.com/,7661276727,https://www.realtor.com/realestateandhomes-detail/5839-N-Oconto-Ave_Chicago_IL_60631_M76612-76727,475000.0,"5839 N Oconto Ave, Chicago, IL 60631",SOLD,2100.0,3.0,2.5,41.987613,-87.807933
https://www.realtor.com/,7273784050,https://www.realtor.com/realestateandhomes-detail/7744-S-Constance-Ave_Chicago_IL_60649_M72737-84050,209900.0,"7744 S Constance Ave, Chicago, IL 60649",SOLD,2744.0,3.0,2,41.753876,-87.580052
https://www.realtor.com/,7486615258,https://www.realtor.com/realestateandhomes-detail/3529-W-Le-Moyne-St_Chicago_IL_60651_M74866-15258,498000.0,"3529 W Le Moyne St, Chicago, IL 60651",SOLD,2200.0,3.0,2.5,41.907926,-87.715509
https://www.realtor.com/,8923727692,https://www.realtor.com/realestateandhomes-detail/12147-S-Ashland-Ave_Chicago_IL_60643_M89237-27692,185000.0,"12147 S Ashland Ave, Chicago, IL 60643",SOLD,1224.0,3.0,2,41.672484,-87.660875
https://www.realtor.com/,7741148311,https://www.realtor.com/realestateandhomes-detail/4024-W-Waveland-Ave_Chicago_IL_60641_M77411-48311,699000.0,"4024 W Waveland Ave, Chicago, IL 60641",SOLD,2000.0,3.0,2.5,41.948437,-87.728546
https://www.realtor.com/,7950214955,https://www.realtor.com/realestateandhomes-detail/4036-W-Waveland-Ave_Chicago_IL_60641_M79502-14955,699000.0,"4036 W Waveland Ave, Chicago, IL 60641",SOLD,2032.0,3.0,3.5,41.948433,-87.728958
https://www.realtor.com/,8919242145,https://www.realtor.com/realestateandhomes-detail/11021-S-Washtenaw-Ave_Chicago_IL_60655_M89192-42145,695000.0,"11021 S Washtenaw Ave, Chicago, IL 60655",SOLD,3000.0,4.0,3.5,41.692836,-87.688205
https://www.realtor.com/,9063124997,https://www.realtor.com/realestateandhomes-detail/2114-N-Hoyne-Ave_Chicago_IL_60647_M90631-24997,1095000.0,"2114 N Hoyne Ave, Chicago, IL 60647",SOLD,2300.0,4.0,2.5,41.920498,-87.680496
https://www.realtor.com/,7207158323,https://www.realtor.com/realestateandhomes-detail/2105-W-Giddings-St_Chicago_IL_60625_M72071-58323,1550000.0,"2105 W Giddings St, Chicago, IL 60625",SOLD,4393.0,5.0,3.5,41.967548,-87.681097
https://www.realtor.com/,8594654043,https://www.realtor.com/realestateandhomes-detail/5101-N-Nashville-Ave_Chicago_IL_60656_M85946-54043,585000.0,"5101 N Nashville Ave, Chicago, IL 60656",SOLD,3150.0,3.0,2.5,41.97396,-87.791194
https://www.realtor.com/,7773283445,https://www.realtor.com/realestateandhomes-detail/9101-S-Dobson-Ave_Chicago_IL_60619_M77732-83445,259900.0,"9101 S Dobson Ave, Chicago, IL 60619",SOLD,2044.0,4.0,2.5,41.729321,-87.59824
https://www.realtor.com/,9090861712,https://www.realtor.com/realestateandhomes-detail/5921-S-Mozart-St_Chicago_IL_60629_M90908-61712,339900.0,"5921 S Mozart St, Chicago, IL 60629",SOLD,1200.0,3.0,3,41.785706,-87.694445
https://www.realtor.com/,7905549905,https://www.realtor.com/realestateandhomes-detail/2469-W-Cullom-Ave_Chicago_IL_60618_M79055-49905,1200000.0,"2469 W Cullom Ave, Chicago, IL 60618",SOLD,3800.0,3.0,3.5,41.959211,-87.691299
https://www.realtor.com/,7938190988,https://www.realtor.com/realestateandhomes-detail/1230-W-34th-St_Chicago_IL_60608_M79381-90988,1100000.0,"1230 W 34th St, Chicago, IL 60608",SOLD,4461.0,5.0,4.5,41.832753,-87.65751
https://www.realtor.com/,7911008403,https://www.realtor.com/realestateandhomes-detail/3439-N-Osage-Ave_Chicago_IL_60634_M79110-08403,489000.0,"3439 N Osage Ave, Chicago, IL 60634",SOLD,1248.0,3.0,2.5,41.942346,-87.82491
https://www.realtor.com/,8003986929,https://www.realtor.com/realestateandhomes-detail/5930-N-Hermitage-Ave_Chicago_IL_60660_M80039-86929,995000.0,"5930 N Hermitage Ave, Chicago, IL 60660",SOLD,4165.0,3.0,3,41.989307,-87.673575
https://www.realtor.com/,9632077960,https://www.realtor.com/realestateandhomes-detail/1848-W-Cuyler-Ave_Chicago_IL_60613_M96320-77960,1950000.0,"1848 W Cuyler Ave, Chicago, IL 60613",SOLD,4500.0,6.0,4.5,41.955418,-87.676155
https://www.realtor.com/,7102376459,https://www.realtor.com/realestateandhomes-detail/10326-S-Avenue-H_Chicago_IL_60617_M71023-76459,294000.0,"10326 S Avenue H, Chicago, IL 60617",SOLD,1881.0,4.0,2.5,41.707408,-87.533218
https://www.realtor.com/,8831876497,https://www.realtor.com/realestateandhomes-detail/1736-N-Spaulding-Ave_Chicago_IL_60647_M88318-76497,925000.0,"1736 N Spaulding Ave, Chicago, IL 60647",SOLD,2800.0,3.0,3.5,41.913021,-87.710608
https://www.realtor.com/,8670846968,https://www.realtor.com/realestateandhomes-detail/2208-W-Walton-St_Chicago_IL_60622_M86708-46968,1999999.0,"2208 W Walton St, Chicago, IL 60622",SOLD,6000.0,6.0,4.5+,41.898809,-87.682465
https://www.realtor.com/,8375117045,https://www.realtor.com/realestateandhomes-detail/6116-S-Elizabeth-St_Chicago_IL_60636_M83751-17045,259900.0,"6116 S Elizabeth St, Chicago, IL 60636",SOLD,1500.0,4.0,2,41.782557,-87.656413
https://www.realtor.com/,8326898064,https://www.realtor.com/realestateandhomes-detail/11620-S-Ada-St_Chicago_IL_60643_M83268-98064,289900.0,"11620 S Ada St, Chicago, IL 60643",SOLD,2080.0,3.0,2,41.682378,-87.655799
https://www.realtor.com/,8880625182,https://www.realtor.com/realestateandhomes-detail/5400-S-Komensky-Ave_Chicago_IL_60632_M88806-25182,319000.0,"5400 S Komensky Ave, Chicago, IL 60632",SOLD,1152.0,3.0,2,41.79489,-87.724776
https://www.realtor.com/,8153783240,https://www.realtor.com/realestateandhomes-detail/6721-S-Oakley-Ave_Chicago_IL_60636_M81537-83240,299900.0,"6721 S Oakley Ave, Chicago, IL 60636",SOLD,1640.0,5.0,3,41.771346,-87.680542
https://www.realtor.com/,8600877456,https://www.realtor.com/realestateandhomes-detail/5670-N-Kerbs-Ave_Chicago_IL_60646_M86008-77456,689000.0,"5670 N Kerbs Ave, Chicago, IL 60646",SOLD,2165.0,4.0,2,41.984605,-87.745827
https://www.realtor.com/,8333649680,https://www.realtor.com/realestateandhomes-detail/3104-N-Kenneth-Ave_Chicago_IL_60641_M83336-49680,349900.0,"3104 N Kenneth Ave, Chicago, IL 60641",SOLD,2370.0,3.0,3,41.937329,-87.738565
https://www.realtor.com/,8992626490,https://www.realtor.com/realestateandhomes-detail/5237-W-Schubert-Ave_Chicago_IL_60639_M89926-26490,449900.0,"5237 W Schubert Ave, Chicago, IL 60639",SOLD,1996.0,3.0,3,41.929308,-87.757808
https://www.realtor.com/,8683617295,https://www.realtor.com/realestateandhomes-detail/1415-W-Glenlake-Ave_Chicago_IL_60660_M86836-17295,925000.0,"1415 W Glenlake Ave, Chicago, IL 60660",SOLD,2100.0,4.0,2,41.992396,-87.66588
https://www.realtor.com/,7385687713,https://www.realtor.com/realestateandhomes-detail/8059-S-Whipple-St_Chicago_IL_60652_M73856-87713,349900.0,"8059 S Whipple St, Chicago, IL 60652",SOLD,1500.0,3.0,2.5,41.746372,-87.698283
https://www.realtor.com/,8082447942,https://www.realtor.com/realestateandhomes-detail/5341-N-Nottingham-Ave_Chicago_IL_60656_M80824-47942,375000.0,"5341 N Nottingham Ave, Chicago, IL 60656",SOLD,1159.0,2.0,1.5,41.978357,-87.803201
https://www.realtor.com/,7246866148,https://www.realtor.com/realestateandhomes-detail/5079-N-Olympia-Ave_Chicago_IL_60656_M72468-66148,499900.0,"5079 N Olympia Ave, Chicago, IL 60656",SOLD,1600.0,3.0,2.5,41.97318,-87.817263
https://www.realtor.com/,8533343344,https://www.realtor.com/realestateandhomes-detail/6109-W-Grace-St_Chicago_IL_60634_M85333-43344,369900.0,"6109 W Grace St, Chicago, IL 60634",SOLD,1500.0,4.0,2,41.949119,-87.779501
https://www.realtor.com/,8309753988,https://www.realtor.com/realestateandhomes-detail/3124-N-Oconto-Ave_Chicago_IL_60707_M83097-53988,350000.0,"3124 N Oconto Ave, Chicago, IL 60707",SOLD,843.0,3.0,2.5,41.937072,-87.8083
https://www.realtor.com/,7469250216,https://www.realtor.com/realestateandhomes-detail/5429-S-Oak-Park-Ave_Chicago_IL_60638_M74692-50216,400000.0,"5429 S Oak Park Ave, Chicago, IL 60638",SOLD,1124.0,3.0,2,41.793213,-87.791254
https://www.realtor.com/,7320069757,https://www.realtor.com/realestateandhomes-detail/7728-W-Palatine-Ave_Chicago_IL_60631_M73200-69757,399000.0,"7728 W Palatine Ave, Chicago, IL 60631",SOLD,1500.0,3.0,2,41.995279,-87.820191
https://www.realtor.com/,7862026433,https://www.realtor.com/realestateandhomes-detail/7171-W-Armitage-Ave_Chicago_IL_60707_M78620-26433,330000.0,"7171 W Armitage Ave, Chicago, IL 60707",SOLD,1122.0,2.0,1,41.915942,-87.805008
https://www.realtor.com/,8302908427,https://www.realtor.com/realestateandhomes-detail/3024-N-Lowell-Ave_Chicago_IL_60641_M83029-08427,499900.0,"3024 N Lowell Ave, Chicago, IL 60641",SOLD,2652.0,4.0,3,41.936102,-87.736229
https://www.realtor.com/,7732404632,https://www.realtor.com/realestateandhomes-detail/8137-S-Francisco-Ave_Chicago_IL_60652_M77324-04632,354900.0,"8137 S Francisco Ave, Chicago, IL 60652",SOLD,3500.0,5.0,3,41.745212,-87.694589
https://www.realtor.com/,8761631879,https://www.realtor.com/realestateandhomes-detail/543-N-Lawler-Ave_Chicago_IL_60644_M87616-31879,209900.0,"543 N Lawler Ave, Chicago, IL 60644",SOLD,1600.0,4.0,2.5,41.890653,-87.751422
https://www.realtor.com/,8654328006,https://www.realtor.com/realestateandhomes-detail/11603-S-Laflin-St_Chicago_IL_60643_M86543-28006,224900.0,"11603 S Laflin St, Chicago, IL 60643",SOLD,1280.0,3.0,1.5,41.682832,-87.658766
https://www.realtor.com/,7714265748,https://www.realtor.com/realestateandhomes-detail/6800-N-Oakley-Ave_Chicago_IL_60645_M77142-65748,699000.0,"6800 N Oakley Ave, Chicago, IL 60645",SOLD,1818.0,3.0,2.5,42.005413,-87.688183
https://www.realtor.com/,8758230009,https://www.realtor.com/realestateandhomes-detail/2851-W-Balmoral-Ave_Chicago_IL_60625_M87582-30009,549900.0,"2851 W Balmoral Ave, Chicago, IL 60625",SOLD,2071.0,3.0,1.5,41.979197,-87.701057
https://www.realtor.com/,8060696064,https://www.realtor.com/realestateandhomes-detail/12756-S-Exchange-Ave_Chicago_IL_60633_M80606-96064,259999.0,"12756 S Exchange Ave, Chicago, IL 60633",SOLD,1040.0,3.0,1,41.662972,-87.552334
https://www.realtor.com/,7020476067,https://www.realtor.com/realestateandhomes-detail/8342-S-Kolin-Ave_Chicago_IL_60652_M70204-76067,309900.0,"8342 S Kolin Ave, Chicago, IL 60652",SOLD,1280.0,3.0,1.5,41.740778,-87.730478
https://www.realtor.com/,7585163225,https://www.realtor.com/realestateandhomes-detail/4918-W-Altgeld-St_Chicago_IL_60639_M75851-63225,399999.0,"4918 W Altgeld St, Chicago, IL 60639",SOLD,1395.0,5.0,3,41.926315,-87.74965
https://www.realtor.com/,8482983390,https://www.realtor.com/realestateandhomes-detail/3632-W-116th-Pl_Chicago_IL_60655_M84829-83390,319500.0,"3632 W 116th Pl, Chicago, IL 60655",SOLD,1152.0,3.0,2.5,41.681623,-87.711512
https://www.realtor.com/,7128410831,https://www.realtor.com/realestateandhomes-detail/9516-S-Bishop-St_Chicago_IL_60643_M71284-10831,75000.0,"9516 S Bishop St, Chicago, IL 60643",SOLD,920.0,2.0,1,41.720697,-87.659417
https://www.realtor.com/,8606578442,https://www.realtor.com/realestateandhomes-detail/1640-N-Kedzie-Ave_Chicago_IL_60647_M86065-78442,425000.0,"1640 N Kedzie Ave, Chicago, IL 60647",SOLD,1600.0,2.0,2,41.911391,-87.707297
https://www.realtor.com/,8525374547,https://www.realtor.com/realestateandhomes-detail/9753-S-Calumet-Ave_Chicago_IL_60628_M85253-74547,139900.0,"9753 S Calumet Ave, Chicago, IL 60628",SOLD,1008.0,3.0,1,41.716705,-87.614882
https://www.realtor.com/,7255260951,https://www.realtor.com/realestateandhomes-detail/10107-S-Saint-Lawrence-Ave_Chicago_IL_60628_M72552-60951,215000.0,"10107 S Saint Lawrence Ave, Chicago, IL 60628",SOLD,1408.0,3.0,1.5,41.710748,-87.608639
https://www.realtor.com/,8743356343,https://www.realtor.com/realestateandhomes-detail/11515-S-Aberdeen-St_Chicago_IL_60643_M87433-56343,279900.0,"11515 S Aberdeen St, Chicago, IL 60643",SOLD,1040.0,3.0,2,41.684472,-87.64908
https://www.realtor.com/,7245997475,https://www.realtor.com/realestateandhomes-detail/10018-S-Oakley-Ave_Chicago_IL_60643_M72459-97475,343000.0,"10018 S Oakley Ave, Chicago, IL 60643",SOLD,1448.0,3.0,1.5,41.711256,-87.679702
https://www.realtor.com/,8374837625,https://www.realtor.com/realestateandhomes-detail/2442-W-107th-St_Chicago_IL_60655_M83748-37625,349900.0,"2442 W 107th St, Chicago, IL 60655",SOLD,1118.0,2.0,2,41.699339,-87.683177
https://www.realtor.com/,7259716600,https://www.realtor.com/realestateandhomes-detail/6018-N-Monitor-Ave_Chicago_IL_60646_M72597-16600,625000.0,"6018 N Monitor Ave, Chicago, IL 60646",SOLD,2100.0,5.0,3,41.990825,-87.774571
https://www.realtor.com/,7954493203,https://www.realtor.com/realestateandhomes-detail/9823-S-Greenwood-Ave_Chicago_IL_60628_M79544-93203,209888.0,"9823 S Greenwood Ave, Chicago, IL 60628",SOLD,1123.0,3.0,2,41.715977,-87.59666
https://www.realtor.com/,8797657008,https://www.realtor.com/realestateandhomes-detail/10507-S-Prospect-Ave_Chicago_IL_60643_M87976-57008,290000.0,"10507 S Prospect Ave, Chicago, IL 60643",SOLD,1446.0,3.0,1,41.70278,-87.661403
https://www.realtor.com/,8509612459,https://www.realtor.com/realestateandhomes-detail/1725-N-Ridgeway-Ave_Chicago_IL_60647_M85096-12459,299900.0,"1725 N Ridgeway Ave, Chicago, IL 60647",SOLD,1222.0,3.0,2,41.912568,-87.719944
https://www.realtor.com/,7127057885,https://www.realtor.com/realestateandhomes-detail/9945-S-Sangamon-St_Chicago_IL_60643_M71270-57885,115000.0,"9945 S Sangamon St, Chicago, IL 60643",SOLD,1211.0,2.0,1.5,41.712817,-87.646291
https://www.realtor.com/,7964407869,https://www.realtor.com/realestateandhomes-detail/2868-W-85th-St_Chicago_IL_60652_M79644-07869,289900.0,"2868 W 85th St, Chicago, IL 60652",SOLD,890.0,2.0,2,41.739473,-87.694994
https://www.realtor.com/,8571096035,https://www.realtor.com/realestateandhomes-detail/1335-N-Astor-St-Apt-5B_Chicago_IL_60610_M85710-96035,425000.0,"1335 N Astor St Apt 5B, Chicago, IL 60610",SOLD,2000.0,3.0,3,41.907024,-87.627052
https://www.realtor.com/,7281154667,https://www.realtor.com/realestateandhomes-detail/7338-N-Ottawa-Ave_Chicago_IL_60631_M72811-54667,375000.0,"7338 N Ottawa Ave, Chicago, IL 60631",SOLD,1000.0,2.0,1,42.014395,-87.817928
https://www.realtor.com/,7101919821,https://www.realtor.com/realestateandhomes-detail/4640-S-LA-Crosse-Ave_Chicago_IL_60638_M71019-19821,284900.0,"4640 S LA Crosse Ave, Chicago, IL 60638",SOLD,1008.0,3.0,2,41.808202,-87.744751
https://www.realtor.com/,7293881766,https://www.realtor.com/realestateandhomes-detail/6416-S-Kolin-Ave_Chicago_IL_60629_M72938-81766,339900.0,"6416 S Kolin Ave, Chicago, IL 60629",SOLD,1100.0,4.0,2,41.776188,-87.731589
https://www.realtor.com/,7962187657,https://www.realtor.com/realestateandhomes-detail/10925-S-Morgan-St_Chicago_IL_60643_M79621-87657,229900.0,"10925 S Morgan St, Chicago, IL 60643",SOLD,1341.0,3.0,2,41.695183,-87.646969
https://www.realtor.com/,7303135092,https://www.realtor.com/realestateandhomes-detail/5612-S-Kenneth-Ave_Chicago_IL_60629_M73031-35092,235000.0,"5612 S Kenneth Ave, Chicago, IL 60629",SOLD,1017.0,2.0,2,41.790796,-87.734473
https://www.realtor.com/,9680747380,https://www.realtor.com/realestateandhomes-detail/1922-W-Hood-Ave-Apt-1A_Chicago_IL_60660_M96807-47380,60000.0,"1922 W Hood Ave Apt 1A, Chicago, IL 60660",SOLD,700.0,2.0,1,41.993374,-87.678284
https://www.realtor.com/,7739434597,https://www.realtor.com/realestateandhomes-detail/526-E-91st-Pl_Chicago_IL_60619_M77394-34597,129995.0,"526 E 91st Pl, Chicago, IL 60619",SOLD,1040.0,3.0,1.5,41.728604,-87.610778
https://www.realtor.com/,7283035450,https://www.realtor.com/realestateandhomes-detail/10111-S-Forest-Ave_Chicago_IL_60628_M72830-35450,140000.0,"10111 S Forest Ave, Chicago, IL 60628",SOLD,920.0,2.0,1,41.71055,-87.615937
https://www.realtor.com/,8702363806,https://www.realtor.com/realestateandhomes-detail/11701-S-Laflin-St_Chicago_IL_60643_M87023-63806,160000.0,"11701 S Laflin St, Chicago, IL 60643",SOLD,1040.0,3.0,2,41.681092,-87.658714
https://www.realtor.com/,8208058379,https://www.realtor.com/realestateandhomes-detail/940-W-Castlewood-Ter_Chicago_IL_60640_M82080-58379,725000.0,"940 W Castlewood Ter, Chicago, IL 60640",SOLD,3013.0,4.0,2.5,41.971042,-87.65408
https://www.realtor.com/,7694038382,https://www.realtor.com/realestateandhomes-detail/5207-S-Major-Ave_Chicago_IL_60638_M76940-38382,324900.0,"5207 S Major Ave, Chicago, IL 60638",SOLD,1142.0,3.0,2,41.79793,-87.764546
https://www.realtor.com/,8332796232,https://www.realtor.com/realestateandhomes-detail/7037-S-Wolcott-Ave_Chicago_IL_60636_M83327-96232,100000.0,"7037 S Wolcott Ave, Chicago, IL 60636",SOLD,1040.0,3.0,2,41.765568,-87.670778
https://www.realtor.com/,8581217485,https://www.realtor.com/realestateandhomes-detail/3123-W-Chase-Ave_Chicago_IL_60645_M85812-17485,900000.0,"3123 W Chase Ave, Chicago, IL 60645",SOLD,3000.0,5.0,3.5,42.013446,-87.707781
https://www.realtor.com/,8762689847,https://www.realtor.com/realestateandhomes-detail/4431-S-Kedvale-Ave_Chicago_IL_60632_M87626-89847,204999.0,"4431 S Kedvale Ave, Chicago, IL 60632",SOLD,1056.0,2.0,1,41.81243,-87.727073
https://www.realtor.com/,7851672615,https://www.realtor.com/realestateandhomes-detail/9519-S-Marquette-Ave_Chicago_IL_60617_M78516-72615,195000.0,"9519 S Marquette Ave, Chicago, IL 60617",SOLD,3475.0,3.0,2,41.722023,-87.557574
https://www.realtor.com/,7336832063,https://www.realtor.com/realestateandhomes-detail/4343-W-77th-Pl_Chicago_IL_60652_M73368-32063,270000.0,"4343 W 77th Pl, Chicago, IL 60652",SOLD,1200.0,4.0,1,41.752264,-87.730954
https://www.realtor.com/,8627001736,https://www.realtor.com/realestateandhomes-detail/4230-N-Wolcott-Ave_Chicago_IL_60613_M86270-01736,2195000.0,"4230 N Wolcott Ave, Chicago, IL 60613",SOLD,4750.0,6.0,4.5+,41.958793,-87.676345
https://www.realtor.com/,8308787519,https://www.realtor.com/realestateandhomes-detail/818-N-Lorel-Ave_Chicago_IL_60651_M83087-87519,369500.0,"818 N Lorel Ave, Chicago, IL 60651",SOLD,1538.0,5.0,3,41.895535,-87.75972
https://www.realtor.com/,7638876563,https://www.realtor.com/realestateandhomes-detail/10333-S-Bell-Ave_Chicago_IL_60643_M76388-76563,495000.0,"10333 S Bell Ave, Chicago, IL 60643",SOLD,2026.0,3.0,1.5,41.705475,-87.677623
https://www.realtor.com/,8553384717,https://www.realtor.com/realestateandhomes-detail/1473-W-73rd-St_Chicago_IL_60636_M85533-84717,249900.0,"1473 W 73rd St, Chicago, IL 60636",SOLD,1924.0,4.0,3,41.761039,-87.661717
https://www.realtor.com/,8832692437,https://www.realtor.com/realestateandhomes-detail/1715-N-Latrobe-Ave_Chicago_IL_60639_M88326-92437,325000.0,"1715 N Latrobe Ave, Chicago, IL 60639",SOLD,1069.0,3.0,2,41.911781,-87.756615
https://www.realtor.com/,8784360252,https://www.realtor.com/realestateandhomes-detail/7543-S-Cregier-Ave_Chicago_IL_60649_M87843-60252,285000.0,"7543 S Cregier Ave, Chicago, IL 60649",SOLD,2400.0,4.0,2,41.75747,-87.580653
https://www.realtor.com/,8014705000,https://www.realtor.com/realestateandhomes-detail/4935-W-School-St_Chicago_IL_60641_M80147-05000,465000.0,"4935 W School St, Chicago, IL 60641",SOLD,2700.0,6.0,3,41.940338,-87.750863
https://www.realtor.com/,7268841681,https://www.realtor.com/realestateandhomes-detail/3648-N-Page-Ave_Chicago_IL_60634_M72688-41681,795000.0,"3648 N Page Ave, Chicago, IL 60634",SOLD,3580.0,3.0,3.5,41.946471,-87.828244
https://www.realtor.com/,8985376598,https://www.realtor.com/realestateandhomes-detail/5642-S-Mason-Ave_Chicago_IL_60638_M89853-76598,265000.0,"5642 S Mason Ave, Chicago, IL 60638",SOLD,883.0,2.0,2,41.789437,-87.771073
https://www.realtor.com/,7255726851,https://www.realtor.com/realestateandhomes-detail/7248-W-Seminole-St_Chicago_IL_60631_M72557-26851,529800.0,"7248 W Seminole St, Chicago, IL 60631",SOLD,1509.0,3.0,2.5,41.98435,-87.808935
https://www.realtor.com/,7860674710,https://www.realtor.com/realestateandhomes-detail/2424-N-Oak-Park-Ave_Chicago_IL_60707_M78606-74710,360000.0,"2424 N Oak Park Ave, Chicago, IL 60707",SOLD,1344.0,3.0,1.5,41.924463,-87.795621
https://www.realtor.com/,8692496555,https://www.realtor.com/realestateandhomes-detail/2721-W-Seipp-St_Chicago_IL_60652_M86924-96555,414900.0,"2721 W Seipp St, Chicago, IL 60652",SOLD,2553.0,4.0,2.5+,41.737541,-87.690589
https://www.realtor.com/,7607456299,https://www.realtor.com/realestateandhomes-detail/11126-S-Avenue-M_Chicago_IL_60617_M76074-56299,217000.0,"11126 S Avenue M, Chicago, IL 60617",SOLD,1750.0,3.0,2.5,41.692792,-87.538044
https://www.realtor.com/,8904081204,https://www.realtor.com/realestateandhomes-detail/4935-S-Greenwood-Ave_Chicago_IL_60615_M89040-81204,1470000.0,"4935 S Greenwood Ave, Chicago, IL 60615",SOLD,5600.0,7.0,5.5,41.804972,-87.598654
https://www.realtor.com/,7445551551,https://www.realtor.com/realestateandhomes-detail/2522-W-Fitch-Ave_Chicago_IL_60645_M74455-51551,384770.0,"2522 W Fitch Ave, Chicago, IL 60645",SOLD,960.0,2.0,1.5,42.011423,-87.693712
https://www.realtor.com/,8125498389,https://www.realtor.com/realestateandhomes-detail/718-E-88th-Pl_Chicago_IL_60619_M81254-98389,305000.0,"718 E 88th Pl, Chicago, IL 60619",SOLD,2200.0,4.0,3,41.73415,-87.606385
https://www.realtor.com/,7189628809,https://www.realtor.com/realestateandhomes-detail/1734-N-Sawyer-Ave_Chicago_IL_60647_M71896-28809,875000.0,"1734 N Sawyer Ave, Chicago, IL 60647",SOLD,3500.0,3.0,2,41.912974,-87.708986
https://www.realtor.com/,7341284045,https://www.realtor.com/realestateandhomes-detail/6538-S-Karlov-Ave_Chicago_IL_60629_M73412-84045,384500.0,"6538 S Karlov Ave, Chicago, IL 60629",SOLD,2250.0,3.0,3,41.773778,-87.725423
https://www.realtor.com/,8708181480,https://www.realtor.com/realestateandhomes-detail/422-W-95th-Pl_Chicago_IL_60628_M87081-81480,235000.0,"422 W 95th Pl, Chicago, IL 60628",SOLD,1120.0,3.0,2,41.720922,-87.634934
https://www.realtor.com/,8141323820,https://www.realtor.com/realestateandhomes-detail/3239-W-84th-Pl_Chicago_IL_60652_M81413-23820,260000.0,"3239 W 84th Pl, Chicago, IL 60652",SOLD,1002.0,3.0,2,41.739469,-87.703641
https://www.realtor.com/,7281536069,https://www.realtor.com/realestateandhomes-detail/3443-W-Barry-Ave_Chicago_IL_60618_M72815-36069,665000.0,"3443 W Barry Ave, Chicago, IL 60618",SOLD,3097.0,2.0,3,41.937303,-87.714067
https://www.realtor.com/,7039657877,https://www.realtor.com/realestateandhomes-detail/8301-S-Wood-St_Chicago_IL_60620_M70396-57877,229900.0,"8301 S Wood St, Chicago, IL 60620",SOLD,1300.0,2.0,2,41.742751,-87.66792
https://www.realtor.com/,7313804430,https://www.realtor.com/realestateandhomes-detail/4241-N-Austin-Ave_Chicago_IL_60634_M73138-04430,365000.0,"4241 N Austin Ave, Chicago, IL 60634",SOLD,2376.0,4.0,3,41.957907,-87.776588
https://www.realtor.com/,8643405936,https://www.realtor.com/realestateandhomes-detail/12035-S-State-St_Chicago_IL_60628_M86434-05936,119999.0,"12035 S State St, Chicago, IL 60628",SOLD,900.0,2.0,1,41.675173,-87.622198
https://www.realtor.com/,8175248423,https://www.realtor.com/realestateandhomes-detail/6440-S-Laflin-St_Chicago_IL_60636_M81752-48423,55000.0,"6440 S Laflin St, Chicago, IL 60636",SOLD,1800.0,5.0,3.5,41.776467,-87.662051
https://www.realtor.com/,8564218957,https://www.realtor.com/realestateandhomes-detail/853-W-111th-St_Chicago_IL_60643_M85642-18957,69000.0,"853 W 111th St, Chicago, IL 60643",SOLD,1264.0,3.0,1,41.692069,-87.644443
https://www.realtor.com/,7827270424,https://www.realtor.com/realestateandhomes-detail/8930-S-Parnell-Ave_Chicago_IL_60620_M78272-70424,185000.0,"8930 S Parnell Ave, Chicago, IL 60620",SOLD,1080.0,3.0,1.5,41.73164,-87.637769
https://www.realtor.com/,8511185149,https://www.realtor.com/realestateandhomes-detail/5725-S-Newland-Ave_Chicago_IL_60638_M85111-85149,315000.0,"5725 S Newland Ave, Chicago, IL 60638",SOLD,1082.0,3.0,2,41.787677,-87.79471
https://www.realtor.com/,7961861893,https://www.realtor.com/realestateandhomes-detail/4164-W-Byron-St_Chicago_IL_60641_M79618-61893,400000.0,"4164 W Byron St, Chicago, IL 60641",SOLD,2700.0,4.0,1.5,41.952022,-87.731722
https://www.realtor.com/,7879142170,https://www.realtor.com/realestateandhomes-detail/2106-N-Hudson-Ave_Chicago_IL_60614_M78791-42170,1999000.0,"2106 N Hudson Ave, Chicago, IL 60614",SOLD,3450.0,5.0,4.5,41.920402,-87.640376
https://www.realtor.com/,7999174548,https://www.realtor.com/realestateandhomes-detail/4145-N-Richmond-St_Chicago_IL_60618_M79991-74548,424900.0,"4145 N Richmond St, Chicago, IL 60618",SOLD,1900.0,5.0,3,41.957086,-87.701651
https://www.realtor.com/,8701035531,https://www.realtor.com/realestateandhomes-detail/6800-S-Claremont-Ave_Chicago_IL_60636_M87010-35531,249900.0,"6800 S Claremont Ave, Chicago, IL 60636",SOLD,972.0,3.0,1.5,41.770037,-87.682429
https://www.realtor.com/,8025450980,https://www.realtor.com/realestateandhomes-detail/13506-S-Avenue-N_Chicago_IL_60633_M80254-50980,389900.0,"13506 S Avenue N, Chicago, IL 60633",SOLD,2300.0,4.0,3,41.64972,-87.539015
https://www.realtor.com/,7803165840,https://www.realtor.com/realestateandhomes-detail/6092-N-Navarre-Ave_Chicago_IL_60631_M78031-65840,425000.0,"6092 N Navarre Ave, Chicago, IL 60631",SOLD,1622.0,3.0,2,41.991741,-87.796234
https://www.realtor.com/,7566569262,https://www.realtor.com/realestateandhomes-detail/9431-S-Pleasant-Ave_Chicago_IL_60643_M75665-69262,850000.0,"9431 S Pleasant Ave, Chicago, IL 60643",SOLD,2870.0,4.0,2.5+,41.721983,-87.669338
https://www.realtor.com/,7420627791,https://www.realtor.com/realestateandhomes-detail/6255-W-Peterson-Ave_Chicago_IL_60646_M74206-27791,415000.0,"6255 W Peterson Ave, Chicago, IL 60646",SOLD,1120.0,3.0,2,41.989883,-87.784907
https://www.realtor.com/,8613132876,https://www.realtor.com/realestateandhomes-detail/6019-W-Eddy-St_Chicago_IL_60634_M86131-32876,357500.0,"6019 W Eddy St, Chicago, IL 60634",SOLD,1079.0,2.0,1.5,41.944587,-87.77729
https://www.realtor.com/,7482037509,https://www.realtor.com/realestateandhomes-detail/6616-S-Kostner-Ave_Chicago_IL_60629_M74820-37509,369900.0,"6616 S Kostner Ave, Chicago, IL 60629",SOLD,2726.0,4.0,2,41.772538,-87.732711
https://www.realtor.com/,8020792737,https://www.realtor.com/realestateandhomes-detail/13118-S-Avenue-N_Chicago_IL_60633_M80207-92737,365000.0,"13118 S Avenue N, Chicago, IL 60633",SOLD,1168.0,3.0,2,41.656679,-87.539029
https://www.realtor.com/,8440501286,https://www.realtor.com/realestateandhomes-detail/6649-N-Octavia-Ave_Chicago_IL_60631_M84405-01286,775000.0,"6649 N Octavia Ave, Chicago, IL 60631",SOLD,2938.0,4.0,3,42.001611,-87.808832
https://www.realtor.com/,7658937013,https://www.realtor.com/realestateandhomes-detail/7149-S-Artesian-Ave_Chicago_IL_60629_M76589-37013,285000.0,"7149 S Artesian Ave, Chicago, IL 60629",SOLD,1618.0,4.0,3,41.763231,-87.684088
https://www.realtor.com/,9272047067,https://www.realtor.com/realestateandhomes-detail/9621-S-Charles-St_Chicago_IL_60643_M92720-47067,420000.0,"9621 S Charles St, Chicago, IL 60643",SOLD,2000.0,3.0,3.5,41.718936,-87.662952
https://www.realtor.com/,7580849119,https://www.realtor.com/realestateandhomes-detail/223-N-Sacramento-Blvd_Chicago_IL_60612_M75808-49119,414000.0,"223 N Sacramento Blvd, Chicago, IL 60612",SOLD,2058.0,2.0,3,41.884841,-87.700874
https://www.realtor.com/,8182370773,https://www.realtor.com/realestateandhomes-detail/4848-W-Catalpa-Ave_Chicago_IL_60630_M81823-70773,440000.0,"4848 W Catalpa Ave, Chicago, IL 60630",SOLD,2100.0,4.0,3,41.980313,-87.750078
https://www.realtor.com/,8425113418,https://www.realtor.com/realestateandhomes-detail/4038-W-81st-Pl_Chicago_IL_60652_M84251-13418,343999.0,"4038 W 81st Pl, Chicago, IL 60652",SOLD,1024.0,3.0,2,41.745243,-87.723316
https://www.realtor.com/,8538886340,https://www.realtor.com/realestateandhomes-detail/11208-S-Fairfield-Ave_Chicago_IL_60655_M85388-86340,319000.0,"11208 S Fairfield Ave, Chicago, IL 60655",SOLD,1404.0,4.0,2,41.689526,-87.690045
https://www.realtor.com/,8185864845,https://www.realtor.com/realestateandhomes-detail/4354-S-Wood-St_Chicago_IL_60609_M81858-64845,270000.0,"4354 S Wood St, Chicago, IL 60609",SOLD,1000.0,3.0,1,41.814258,-87.670324
https://www.realtor.com/,7493147132,https://www.realtor.com/realestateandhomes-detail/8551-S-Carpenter-St_Chicago_IL_60620_M74931-47132,259900.0,"8551 S Carpenter St, Chicago, IL 60620",SOLD,903.0,4.0,2,41.738136,-87.649406
https://www.realtor.com/,8079533738,https://www.realtor.com/realestateandhomes-detail/6037-S-Mason-Ave_Chicago_IL_60638_M80795-33738,299900.0,"6037 S Mason Ave, Chicago, IL 60638",SOLD,2100.0,5.0,2,41.782271,-87.77009
https://www.realtor.com/,8729331234,https://www.realtor.com/realestateandhomes-detail/1809-N-Nashville-Ave_Chicago_IL_60707_M87293-31234,425000.0,"1809 N Nashville Ave, Chicago, IL 60707",SOLD,1571.0,3.0,1.5,41.913099,-87.789555
https://www.realtor.com/,8160768418,https://www.realtor.com/realestateandhomes-detail/546-E-87th-St_Chicago_IL_60619_M81607-68418,209000.0,"546 E 87th St, Chicago, IL 60619",SOLD,1147.0,3.0,1.5,41.736831,-87.610254
https://www.realtor.com/,8489340490,https://www.realtor.com/realestateandhomes-detail/5900-N-Kenneth-Ave_Chicago_IL_60646_M84893-40490,950000.0,"5900 N Kenneth Ave, Chicago, IL 60646",SOLD,2600.0,3.0,2.5,41.988298,-87.739889
https://www.realtor.com/,8825051696,https://www.realtor.com/realestateandhomes-detail/7511-W-Seminole-St_Chicago_IL_60631_M88250-51696,445000.0,"7511 W Seminole St, Chicago, IL 60631",SOLD,2422.0,3.0,2,41.983995,-87.815409
https://www.realtor.com/,7374433399,https://www.realtor.com/realestateandhomes-detail/3842-W-83rd-St_Chicago_IL_60652_M73744-33399,349900.0,"3842 W 83rd St, Chicago, IL 60652",SOLD,2120.0,3.0,2,41.742498,-87.718508
https://www.realtor.com/,8419136346,https://www.realtor.com/realestateandhomes-detail/6141-S-Nashville-Ave_Chicago_IL_60638_M84191-36346,287000.0,"6141 S Nashville Ave, Chicago, IL 60638",SOLD,912.0,3.0,2,41.779994,-87.785889
https://www.realtor.com/,8336258816,https://www.realtor.com/realestateandhomes-detail/5750-S-Oak-Park-Ave_Chicago_IL_60638_M83362-58816,315000.0,"5750 S Oak Park Ave, Chicago, IL 60638",SOLD,1153.0,3.0,2,41.786998,-87.791738
https://www.realtor.com/,7861634178,https://www.realtor.com/realestateandhomes-detail/6309-N-Normandy-Ave_Chicago_IL_60631_M78616-34178,465000.0,"6309 N Normandy Ave, Chicago, IL 60631",SOLD,1800.0,3.0,2.5,41.995803,-87.793175
https://www.realtor.com/,8940888583,https://www.realtor.com/realestateandhomes-detail/9616-S-Longwood-Dr_Chicago_IL_60643_M89408-88583,429900.0,"9616 S Longwood Dr, Chicago, IL 60643",SOLD,1650.0,4.0,2.5,41.718729,-87.669536
https://www.realtor.com/,8536319361,https://www.realtor.com/realestateandhomes-detail/301-W-107th-Pl_Chicago_IL_60628_M85363-19361,40000.0,"301 W 107th Pl, Chicago, IL 60628",SOLD,1681.0,6.0,2,41.69861,-87.63065
https://www.realtor.com/,8058244735,https://www.realtor.com/realestateandhomes-detail/543-E-88th-Pl_Chicago_IL_60619_M80582-44735,275000.0,"543 E 88th Pl, Chicago, IL 60619",SOLD,3020.0,3.0,3.5,41.733564,-87.610334
https://www.realtor.com/,8061091468,https://www.realtor.com/realestateandhomes-detail/1237-W-72nd-Pl_Chicago_IL_60636_M80610-91468,85000.0,"1237 W 72nd Pl, Chicago, IL 60636",SOLD,960.0,4.0,1,41.762042,-87.655508
https://www.realtor.com/,8762194017,https://www.realtor.com/realestateandhomes-detail/2436-S-Albany-Ave_Chicago_IL_60623_M87621-94017,99500.0,"2436 S Albany Ave, Chicago, IL 60623",SOLD,1113.0,2.0,1,41.847053,-87.703007
https://www.realtor.com/,8702182551,https://www.realtor.com/realestateandhomes-detail/9055-S-Cregier-Ave_Chicago_IL_60617_M87021-82551,250000.0,"9055 S Cregier Ave, Chicago, IL 60617",SOLD,1410.0,4.0,2.5,41.729939,-87.580046
https://www.realtor.com/,7020985714,https://www.realtor.com/realestateandhomes-detail/9635-S-Winchester-Ave_Chicago_IL_60643_M70209-85714,495000.0,"9635 S Winchester Ave, Chicago, IL 60643",SOLD,2506.0,4.0,2.5,41.718171,-87.670212
https://www.realtor.com/,7947707133,https://www.realtor.com/realestateandhomes-detail/3720-N-Leavitt-St_Chicago_IL_60618_M79477-07133,1975000.0,"3720 N Leavitt St, Chicago, IL 60618",SOLD,4900.0,6.0,4.5,41.949324,-87.683828
https://www.realtor.com/,8748835475,https://www.realtor.com/realestateandhomes-detail/6853-N-Ottawa-Ave_Chicago_IL_60631_M87488-35475,599000.0,"6853 N Ottawa Ave, Chicago, IL 60631",SOLD,1500.0,2.0,2,42.005375,-87.817294
https://www.realtor.com/,7554458993,https://www.realtor.com/realestateandhomes-detail/3700-W-69th-St_Chicago_IL_60629_M75544-58993,349000.0,"3700 W 69th St, Chicago, IL 60629",SOLD,2000.0,3.0,3,41.768102,-87.715323
https://www.realtor.com/,8725026054,https://www.realtor.com/realestateandhomes-detail/5050-N-Bernard-St_Chicago_IL_60625_M87250-26054,549900.0,"5050 N Bernard St, Chicago, IL 60625",SOLD,2810.0,4.0,2,41.973551,-87.71508
https://www.realtor.com/,8420127486,https://www.realtor.com/realestateandhomes-detail/5117-N-Lotus-Ave_Chicago_IL_60630_M84201-27486,620000.0,"5117 N Lotus Ave, Chicago, IL 60630",SOLD,1680.0,4.0,3,41.973864,-87.763573
https://www.realtor.com/,8667123523,https://www.realtor.com/realestateandhomes-detail/8015-S-Aberdeen-St_Chicago_IL_60620_M86671-23523,319000.0,"8015 S Aberdeen St, Chicago, IL 60620",SOLD,1677.0,4.0,3,41.748244,-87.650907
https://www.realtor.com/,7370096396,https://www.realtor.com/realestateandhomes-detail/5715-N-Merrimac-Ave_Chicago_IL_60646_M73700-96396,839000.0,"5715 N Merrimac Ave, Chicago, IL 60646",SOLD,3567.0,4.0,3.5,41.985245,-87.783702
https://www.realtor.com/,8867739390,https://www.realtor.com/realestateandhomes-detail/1505-N-Parkside-Ave_Chicago_IL_60651_M88677-39390,599999.0,"1505 N Parkside Ave, Chicago, IL 60651",SOLD,3500.0,4.0,3.5,41.907773,-87.766718
https://www.realtor.com/,8558460590,https://www.realtor.com/realestateandhomes-detail/5535-N-Saint-Louis-Ave_Chicago_IL_60625_M85584-60590,799000.0,"5535 N Saint Louis Ave, Chicago, IL 60625",SOLD,3300.0,3.0,3,41.982214,-87.715791
https://www.realtor.com/,8419891815,https://www.realtor.com/realestateandhomes-detail/4531-W-66th-Pl_Chicago_IL_60629_M84198-91815,329000.0,"4531 W 66th Pl, Chicago, IL 60629",SOLD,1170.0,3.0,2,41.771855,-87.73607
https://www.realtor.com/,8557316718,https://www.realtor.com/realestateandhomes-detail/5431-N-Neva-Ave_Chicago_IL_60656_M85573-16718,425000.0,"5431 N Neva Ave, Chicago, IL 60656",SOLD,2000.0,2.0,2,41.980084,-87.805489
https://www.realtor.com/,7918863813,https://www.realtor.com/realestateandhomes-detail/4851-S-Leclaire-Ave_Chicago_IL_60638_M79188-63813,329999.0,"4851 S Leclaire Ave, Chicago, IL 60638",SOLD,1000.0,3.0,2,41.804173,-87.750049
https://www.realtor.com/,8932678703,https://www.realtor.com/realestateandhomes-detail/12017-S-Union-Ave_Chicago_IL_60628_M89326-78703,165000.0,"12017 S Union Ave, Chicago, IL 60628",SOLD,1100.0,3.0,1,41.675488,-87.63908
https://www.realtor.com/,7087026742,https://www.realtor.com/realestateandhomes-detail/4851-W-Quincy-St_Chicago_IL_60644_M70870-26742,224900.0,"4851 W Quincy St, Chicago, IL 60644",SOLD,1240.0,4.0,2,41.877404,-87.747123
https://www.realtor.com/,8774909407,https://www.realtor.com/realestateandhomes-detail/3345-N-Oleander-Ave_Chicago_IL_60634_M87749-09407,269901.0,"3345 N Oleander Ave, Chicago, IL 60634",SOLD,1344.0,3.0,2,41.940971,-87.815157
https://www.realtor.com/,9552841692,https://www.realtor.com/realestateandhomes-detail/2838-W-Pratt-Blvd_Chicago_IL_60645_M95528-41692,698000.0,"2838 W Pratt Blvd, Chicago, IL 60645",SOLD,1773.0,4.0,2.5,42.005051,-87.701431
https://www.realtor.com/,8111610971,https://www.realtor.com/realestateandhomes-detail/3428-N-Oconto-Ave_Chicago_IL_60634_M81116-10971,379900.0,"3428 N Oconto Ave, Chicago, IL 60634",SOLD,1202.0,3.0,2,41.942423,-87.808474
https://www.realtor.com/,7236992415,https://www.realtor.com/realestateandhomes-detail/12516-S-Lowe-Ave_Chicago_IL_60628_M72369-92415,262900.0,"12516 S Lowe Ave, Chicago, IL 60628",SOLD,1023.0,3.0,3,41.666394,-87.638264
https://www.realtor.com/,7483432093,https://www.realtor.com/realestateandhomes-detail/7540-S-King-Dr_Chicago_IL_60619_M74834-32093,79400.0,"7540 S King Dr, Chicago, IL 60619",SOLD,880.0,2.0,1,41.757159,-87.615542
https://www.realtor.com/,8631617303,https://www.realtor.com/realestateandhomes-detail/7320-S-Rockwell-St_Chicago_IL_60629_M86316-17303,197500.0,"7320 S Rockwell St, Chicago, IL 60629",SOLD,1230.0,3.0,1.5,41.760305,-87.688375
https://www.realtor.com/,8017647603,https://www.realtor.com/realestateandhomes-detail/11009-S-Drake-Ave_Chicago_IL_60655_M80176-47603,390000.0,"11009 S Drake Ave, Chicago, IL 60655",SOLD,2050.0,4.0,4,41.692927,-87.709084
https://www.realtor.com/,7181056205,https://www.realtor.com/realestateandhomes-detail/7746-S-Coles-Ave_Chicago_IL_60649_M71810-56205,169900.0,"7746 S Coles Ave, Chicago, IL 60649",SOLD,1460.0,4.0,2,41.75504,-87.553903
https://www.realtor.com/,7383199487,https://www.realtor.com/realestateandhomes-detail/1723-N-Moody-Ave_Chicago_IL_60639_M73831-99487,249600.0,"1723 N Moody Ave, Chicago, IL 60639",SOLD,1095.0,2.0,1.5,41.911748,-87.778601
https://www.realtor.com/,7016184521,https://www.realtor.com/realestateandhomes-detail/3938-E-112th-St_Chicago_IL_60617_M70161-84521,254000.0,"3938 E 112th St, Chicago, IL 60617",SOLD,1154.0,2.0,1.5,41.692091,-87.527926
https://www.realtor.com/,8441461274,https://www.realtor.com/realestateandhomes-detail/5930-W-Berenice-Ave_Chicago_IL_60634_M84414-61274,345000.0,"5930 W Berenice Ave, Chicago, IL 60634",SOLD,1130.0,3.0,1,41.950586,-87.775509
https://www.realtor.com/,8487710235,https://www.realtor.com/realestateandhomes-detail/4554-W-Deming-Pl_Chicago_IL_60639_M84877-10235,620000.0,"4554 W Deming Pl, Chicago, IL 60639",SOLD,1716.0,4.0,3,41.927559,-87.741306
https://www.realtor.com/,7181301353,https://www.realtor.com/realestateandhomes-detail/6528-S-Knox-Ave_Chicago_IL_60629_M71813-01353,215000.0,"6528 S Knox Ave, Chicago, IL 60629",SOLD,1250.0,4.0,1,41.774001,-87.738848
https://www.realtor.com/,7269177075,https://www.realtor.com/realestateandhomes-detail/5040-W-Montana-St_Chicago_IL_60639_M72691-77075,329900.0,"5040 W Montana St, Chicago, IL 60639",SOLD,1900.0,2.0,2,41.925365,-87.752882
https://www.realtor.com/,7883125254,https://www.realtor.com/realestateandhomes-detail/5319-N-Ludlam-Ave_Chicago_IL_60630_M78831-25254,549000.0,"5319 N Ludlam Ave, Chicago, IL 60630",SOLD,2485.0,4.0,3,41.978061,-87.763049
https://www.realtor.com/,8825268811,https://www.realtor.com/realestateandhomes-detail/7809-S-Rhodes-Ave_Chicago_IL_60619_M88252-68811,419900.0,"7809 S Rhodes Ave, Chicago, IL 60619",SOLD,3363.0,4.0,3.5,41.752689,-87.61098
https://www.realtor.com/,7928256237,https://www.realtor.com/realestateandhomes-detail/3829-N-Nordica-Ave_Chicago_IL_60634_M79282-56237,589000.0,"3829 N Nordica Ave, Chicago, IL 60634",SOLD,3120.0,4.0,4,41.949837,-87.803127
https://www.realtor.com/,8626522019,https://www.realtor.com/realestateandhomes-detail/2128-N-Racine-Ave_Chicago_IL_60614_M86265-22019,1695000.0,"2128 N Racine Ave, Chicago, IL 60614",SOLD,3300.0,4.0,3.5,41.920712,-87.658657
https://www.realtor.com/,7820174486,https://www.realtor.com/realestateandhomes-detail/4632-N-Paulina-St_Chicago_IL_60640_M78201-74486,1650000.0,"4632 N Paulina St, Chicago, IL 60640",SOLD,4500.0,4.0,3.5+,41.966217,-87.6714
https://www.realtor.com/,8845675506,https://www.realtor.com/realestateandhomes-detail/3318-N-Claremont-Ave_Chicago_IL_60618_M88456-75506,1100000.0,"3318 N Claremont Ave, Chicago, IL 60618",SOLD,3300.0,4.0,3.5,41.941885,-87.687255
https://www.realtor.com/,7305083529,https://www.realtor.com/realestateandhomes-detail/2743-N-Kenmore-Ave_Chicago_IL_60614_M73050-83529,3200000.0,"2743 N Kenmore Ave, Chicago, IL 60614",SOLD,5977.0,6.0,5.5,41.931213,-87.654775
https://www.realtor.com/,7892894006,https://www.realtor.com/realestateandhomes-detail/2414-N-Lotus-Ave_Chicago_IL_60639_M78928-94006,315000.0,"2414 N Lotus Ave, Chicago, IL 60639",SOLD,900.0,3.0,1.5,41.924533,-87.76267
https://www.realtor.com/,8029426270,https://www.realtor.com/realestateandhomes-detail/4630-W-Montana-St_Chicago_IL_60639_M80294-26270,459900.0,"4630 W Montana St, Chicago, IL 60639",SOLD,2600.0,4.0,2,41.92554,-87.742945
https://www.realtor.com/,7636047959,https://www.realtor.com/realestateandhomes-detail/1502-N-Mohawk-St_Chicago_IL_60610_M76360-47959,1350000.0,"1502 N Mohawk St, Chicago, IL 60610",SOLD,3198.0,3.0,3.5,41.909386,-87.642518
https://www.realtor.com/,8421114070,https://www.realtor.com/realestateandhomes-detail/5640-W-Dakin-St_Chicago_IL_60634_M84211-14070,429000.0,"5640 W Dakin St, Chicago, IL 60634",SOLD,1873.0,3.0,1.5,41.952474,-87.7686
https://www.realtor.com/,7641802199,https://www.realtor.com/realestateandhomes-detail/12229-S-Harvard-Ave_Chicago_IL_60628_M76418-02199,150000.0,"12229 S Harvard Ave, Chicago, IL 60628",SOLD,2072.0,5.0,2,41.671576,-87.630537
https://www.realtor.com/,8955216558,https://www.realtor.com/realestateandhomes-detail/6357-N-Hiawatha-Ave_Chicago_IL_60646_M89552-16558,679000.0,"6357 N Hiawatha Ave, Chicago, IL 60646",SOLD,1969.0,3.0,1.5,41.996735,-87.755582
https://www.realtor.com/,7494453549,https://www.realtor.com/realestateandhomes-detail/6757-N-Oxford-Ave_Chicago_IL_60631_M74944-53549,799999.0,"6757 N Oxford Ave, Chicago, IL 60631",SOLD,2150.0,3.0,2,42.003317,-87.813489
https://www.realtor.com/,8711490813,https://www.realtor.com/realestateandhomes-detail/12616-S-Edbrooke-Ave_Chicago_IL_60628_M87114-90813,264500.0,"12616 S Edbrooke Ave, Chicago, IL 60628",SOLD,1622.0,3.0,2,41.664494,-87.619103
https://www.realtor.com/,7610056875,https://www.realtor.com/realestateandhomes-detail/5300-W-Cullom-Ave_Chicago_IL_60641_M76100-56875,599990.0,"5300 W Cullom Ave, Chicago, IL 60641",SOLD,2304.0,3.0,2.5,41.959006,-87.759982
https://www.realtor.com/,7848513417,https://www.realtor.com/realestateandhomes-detail/2641-N-Mango-Ave_Chicago_IL_60639_M78485-13417,409500.0,"2641 N Mango Ave, Chicago, IL 60639",SOLD,1389.0,3.0,2,41.928778,-87.769458
https://www.realtor.com/,9245394057,https://www.realtor.com/realestateandhomes-detail/5840-S-Stony-Island-Ave-13EF_Chicago_IL_60637_M92453-94057,599000.0,"5840 S Stony Island Ave Unit 13EF, Chicago, IL 60637",SOLD,2600.0,4.0,3,41.788551,-87.587318
https://www.realtor.com/,7529297022,https://www.realtor.com/realestateandhomes-detail/7612-S-Seeley-Ave_Chicago_IL_60620_M75292-97022,248000.0,"7612 S Seeley Ave, Chicago, IL 60620",SOLD,1250.0,3.0,2,41.75522,-87.674845
https://www.realtor.com/,8405272896,https://www.realtor.com/realestateandhomes-detail/2930-W-Giddings-St_Chicago_IL_60625_M84052-72896,559000.0,"2930 W Giddings St, Chicago, IL 60625",SOLD,1434.0,3.0,2,41.967854,-87.702133
https://www.realtor.com/,8722740237,https://www.realtor.com/realestateandhomes-detail/6100-W-Byron-St_Chicago_IL_60634_M87227-40237,339900.0,"6100 W Byron St, Chicago, IL 60634",SOLD,1679.0,4.0,1,41.951436,-87.779347
https://www.realtor.com/,7268984204,https://www.realtor.com/realestateandhomes-detail/4343-N-Clarendon-Ave-Apt-1610_Chicago_IL_60613_M72689-84204,125000.0,"4343 N Clarendon Ave Apt 1610, Chicago, IL 60613",SOLD,525.0,0.0,1,41.961343,-87.649325
https://www.realtor.com/,8946988825,https://www.realtor.com/realestateandhomes-detail/7628-S-Luella-Ave_Chicago_IL_60649_M89469-88825,200000.0,"7628 S Luella Ave, Chicago, IL 60649",SOLD,1898.0,3.0,2,41.756188,-87.570326
https://www.realtor.com/,8480729948,https://www.realtor.com/realestateandhomes-detail/10050-S-State-St_Chicago_IL_60628_M84807-29948,129900.0,"10050 S State St, Chicago, IL 60628",SOLD,1030.0,3.0,1,41.711132,-87.623969
https://www.realtor.com/,8710726937,https://www.realtor.com/realestateandhomes-detail/954-W-18th-Pl_Chicago_IL_60608_M87107-26937,619000.0,"954 W 18th Pl, Chicago, IL 60608",SOLD,2000.0,4.0,2,41.857523,-87.650354
https://www.realtor.com/,8002122500,https://www.realtor.com/realestateandhomes-detail/10543-S-Avenue-E_Chicago_IL_60617_M80021-22500,266900.0,"10543 S Avenue E, Chicago, IL 60617",SOLD,1600.0,3.0,2,41.703264,-87.528888
https://www.realtor.com/,8003799467,https://www.realtor.com/realestateandhomes-detail/10748-S-Avenue-N_Chicago_IL_60617_M80037-99467,175000.0,"10748 S Avenue N, Chicago, IL 60617",SOLD,1056.0,2.0,2,41.69947,-87.539254
https://www.realtor.com/,9458467455,https://www.realtor.com/realestateandhomes-detail/2236-W-51st-St_Chicago_IL_60609_M94584-67455,250000.0,"2236 W 51st St, Chicago, IL 60609",SOLD,1260.0,3.0,1.5,41.801417,-87.680957
https://www.realtor.com/,7839709208,https://www.realtor.com/realestateandhomes-detail/4914-W-Ainslie-St_Chicago_IL_60630_M78397-09208,275000.0,"4914 W Ainslie St, Chicago, IL 60630",SOLD,893.0,2.0,2,41.970077,-87.750992
https://www.realtor.com/,7608166981,https://www.realtor.com/realestateandhomes-detail/5019-W-Van-Buren-St_Chicago_IL_60644_M76081-66981,235000.0,"5019 W Van Buren St, Chicago, IL 60644",SOLD,1200.0,3.0,1.5,41.87465,-87.750057
https://www.realtor.com/,7827386073,https://www.realtor.com/realestateandhomes-detail/5423-S-Lorel-Ave_Chicago_IL_60638_M78273-86073,315000.0,"5423 S Lorel Ave, Chicago, IL 60638",SOLD,1200.0,2.0,2.5,41.793929,-87.755876
https://www.realtor.com/,8137530917,https://www.realtor.com/realestateandhomes-detail/5810-S-Mozart-St_Chicago_IL_60629_M81375-30917,279000.0,"5810 S Mozart St, Chicago, IL 60629",SOLD,1149.0,4.0,1,41.787802,-87.695205
https://www.realtor.com/,7375313444,https://www.realtor.com/realestateandhomes-detail/35-E-121st-Pl_Chicago_IL_60628_M73753-13444,259000.0,"35 E 121st Pl, Chicago, IL 60628",SOLD,1257.0,3.0,3,41.673225,-87.621068
https://www.realtor.com/,8095413401,https://www.realtor.com/realestateandhomes-detail/1014-W-Vermont-Ave_Chicago_IL_60643_M80954-13401,186800.0,"1014 W Vermont Ave, Chicago, IL 60643",SOLD,1102.0,3.0,1,41.661021,-87.646937
https://www.realtor.com/,8227669008,https://www.realtor.com/realestateandhomes-detail/8033-S-Sacramento-Ave_Chicago_IL_60652_M82276-69008,199950.0,"8033 S Sacramento Ave, Chicago, IL 60652",SOLD,1783.0,3.0,2,41.747069,-87.697081
https://www.realtor.com/,7167794635,https://www.realtor.com/realestateandhomes-detail/5938-S-California-Ave_Chicago_IL_60629_M71677-94635,198500.0,"5938 S California Ave, Chicago, IL 60629",SOLD,1226.0,3.0,2,41.785221,-87.693913
https://www.realtor.com/,8932641437,https://www.realtor.com/realestateandhomes-detail/1130-W-95th-Pl_Chicago_IL_60643_M89326-41437,68000.0,"1130 W 95th Pl, Chicago, IL 60643",SOLD,714.0,2.0,1,41.720615,-87.651728
https://www.realtor.com/,7411148760,https://www.realtor.com/realestateandhomes-detail/10355-S-Calhoun-Ave_Chicago_IL_60617_M74111-48760,89900.0,"10355 S Calhoun Ave, Chicago, IL 60617",SOLD,1020.0,3.0,1,41.706528,-87.561717
https://www.realtor.com/,7910476989,https://www.realtor.com/realestateandhomes-detail/3136-W-Jarvis-Ave_Chicago_IL_60645_M79104-76989,419000.0,"3136 W Jarvis Ave, Chicago, IL 60645",SOLD,1328.0,3.0,1.5,42.015773,-87.708204
https://www.realtor.com/,8567984224,https://www.realtor.com/realestateandhomes-detail/6213-N-Kirkwood-Ave_Chicago_IL_60646_M85679-84224,979900.0,"6213 N Kirkwood Ave, Chicago, IL 60646",SOLD,2325.0,4.0,2.5+,41.994035,-87.740137
https://www.realtor.com/,8673996384,https://www.realtor.com/realestateandhomes-detail/3216-N-Narragansett-Ave_Chicago_IL_60634_M86739-96384,330000.0,"3216 N Narragansett Ave, Chicago, IL 60634",SOLD,1548.0,2.0,2,41.938855,-87.786426
https://www.realtor.com/,8616507262,https://www.realtor.com/realestateandhomes-detail/9359-S-Michigan-Ave_Chicago_IL_60619_M86165-07262,429999.0,"9359 S Michigan Ave, Chicago, IL 60619",SOLD,2500.0,3.0,2.5,41.723749,-87.620168
https://www.realtor.com/,7309246187,https://www.realtor.com/realestateandhomes-detail/2725-N-Albany-Ave_Chicago_IL_60647_M73092-46187,950000.0,"2725 N Albany Ave, Chicago, IL 60647",SOLD,3222.0,3.0,2.5+,41.931029,-87.704601
https://www.realtor.com/,7275951253,https://www.realtor.com/realestateandhomes-detail/4431-N-Hamilton-Ave_Chicago_IL_60625_M72759-51253,3695000.0,"4431 N Hamilton Ave, Chicago, IL 60625",SOLD,6400.0,7.0,4.5+,41.962369,-87.68179
https://www.realtor.com/,9506050380,https://www.realtor.com/realestateandhomes-detail/2621-W-Carmen-Ave_Chicago_IL_60625_M95060-50380,1345000.0,"2621 W Carmen Ave, Chicago, IL 60625",SOLD,3670.0,5.0,3.5,41.973863,-87.69502
https://www.realtor.com/,8462292936,https://www.realtor.com/realestateandhomes-detail/5636-W-Warwick-Ave_Chicago_IL_60634_M84622-92936,750000.0,"5636 W Warwick Ave, Chicago, IL 60634",SOLD,3000.0,4.0,4,41.948863,-87.768371
https://www.realtor.com/,7901392567,https://www.realtor.com/realestateandhomes-detail/4137-N-Plainfield-Ave_Chicago_IL_60634_M79013-92567,550000.0,"4137 N Plainfield Ave, Chicago, IL 60634",SOLD,1359.0,3.0,2.5,41.955048,-87.833899
https://www.realtor.com/,7618781996,https://www.realtor.com/realestateandhomes-detail/7530-S-Vernon-Ave_Chicago_IL_60619_M76187-81996,250000.0,"7530 S Vernon Ave, Chicago, IL 60619",SOLD,1437.0,4.0,2,41.757493,-87.614211
https://www.realtor.com/,8477321260,https://www.realtor.com/realestateandhomes-detail/4626-N-Lowell-Ave_Chicago_IL_60630_M84773-21260,699000.0,"4626 N Lowell Ave, Chicago, IL 60630",SOLD,2876.0,4.0,3,41.965311,-87.737522
https://www.realtor.com/,7718751999,https://www.realtor.com/realestateandhomes-detail/15-E-92nd-St_Chicago_IL_60619_M77187-51999,95000.0,"15 E 92nd St, Chicago, IL 60619",SOLD,1291.0,3.0,1.5,41.726983,-87.623222
https://www.realtor.com/,8949699273,https://www.realtor.com/realestateandhomes-detail/5815-N-Caldwell-Ave_Chicago_IL_60646_M89496-99273,825000.0,"5815 N Caldwell Ave, Chicago, IL 60646",SOLD,1904.0,3.0,3.5,41.986674,-87.743455
https://www.realtor.com/,7232157473,https://www.realtor.com/realestateandhomes-detail/5036-W-Addison-St_Chicago_IL_60641_M72321-57473,399900.0,"5036 W Addison St, Chicago, IL 60641",SOLD,1174.0,4.0,2.5,41.946305,-87.753539
https://www.realtor.com/,7834196998,https://www.realtor.com/realestateandhomes-detail/5700-W-Gunnison-St_Chicago_IL_60630_M78341-96998,389900.0,"5700 W Gunnison St, Chicago, IL 60630",SOLD,2000.0,4.0,1.5,41.96891,-87.770386
https://www.realtor.com/,7975259962,https://www.realtor.com/realestateandhomes-detail/5710-N-East-Circle-Ave_Chicago_IL_60631_M79752-59962,750000.0,"5710 N East Circle Ave, Chicago, IL 60631",SOLD,2343.0,3.0,2.5+,41.985863,-87.803151
https://www.realtor.com/,8305220841,https://www.realtor.com/realestateandhomes-detail/6138-N-Hamlin-Ave_Chicago_IL_60659_M83052-20841,475000.0,"6138 N Hamlin Ave, Chicago, IL 60659",SOLD,1205.0,3.0,2.5,41.99307,-87.724335
https://www.realtor.com/,8034266287,https://www.realtor.com/realestateandhomes-detail/10957-S-Fairfield-Ave_Chicago_IL_60655_M80342-66287,475000.0,"10957 S Fairfield Ave, Chicago, IL 60655",SOLD,2589.0,4.0,2.5+,41.693667,-87.689464
https://www.realtor.com/,8743682991,https://www.realtor.com/realestateandhomes-detail/5046-N-Lowell-Ave_Chicago_IL_60630_M87436-82991,650000.0,"5046 N Lowell Ave, Chicago, IL 60630",SOLD,3277.0,4.0,2,41.973234,-87.737162
https://www.realtor.com/,8620088309,https://www.realtor.com/realestateandhomes-detail/5935-W-Wilson-Ave_Chicago_IL_60630_M86200-88309,524900.0,"5935 W Wilson Ave, Chicago, IL 60630",SOLD,2300.0,3.0,2,41.963752,-87.776081
https://www.realtor.com/,8495179870,https://www.realtor.com/realestateandhomes-detail/2930-W-Gregory-St_Chicago_IL_60625_M84951-79870,598000.0,"2930 W Gregory St, Chicago, IL 60625",SOLD,1763.0,3.0,1.5,41.982451,-87.702861
https://www.realtor.com/,8119210075,https://www.realtor.com/realestateandhomes-detail/6622-W-Henderson-St_Chicago_IL_60634_M81192-10075,489900.0,"6622 W Henderson St, Chicago, IL 60634",SOLD,1350.0,3.0,2.5,41.941374,-87.791954
https://www.realtor.com/,8179277516,https://www.realtor.com/realestateandhomes-detail/10631-S-Avenue-J_Chicago_IL_60617_M81792-77516,349900.0,"10631 S Avenue J, Chicago, IL 60617",SOLD,1800.0,3.0,2.5,41.701792,-87.533727
https://www.realtor.com/,8449659078,https://www.realtor.com/realestateandhomes-detail/5737-S-Nashville-Ave_Chicago_IL_60638_M84496-59078,380000.0,"5737 S Nashville Ave, Chicago, IL 60638",SOLD,2802.0,3.0,3,41.787461,-87.786151
https://www.realtor.com/,7746719829,https://www.realtor.com/realestateandhomes-detail/6134-S-Neenah-Ave_Chicago_IL_60638_M77467-19829,269000.0,"6134 S Neenah Ave, Chicago, IL 60638",SOLD,840.0,2.0,2,41.780208,-87.785376
https://www.realtor.com/,7882517259,https://www.realtor.com/realestateandhomes-detail/1228-W-73rd-St_Chicago_IL_60636_M78825-17259,139900.0,"1228 W 73rd St, Chicago, IL 60636",SOLD,1600.0,4.0,2,41.761572,-87.655083
https://www.realtor.com/,8425899152,https://www.realtor.com/realestateandhomes-detail/9418-S-Leavitt-St_Chicago_IL_60643_M84258-99152,594900.0,"9418 S Leavitt St, Chicago, IL 60643",SOLD,2240.0,4.0,3,41.722254,-87.67762
https://www.realtor.com/,7633296302,https://www.realtor.com/realestateandhomes-detail/4929-N-Meade-Ave_Chicago_IL_60630_M76332-96302,399900.0,"4929 N Meade Ave, Chicago, IL 60630",SOLD,2423.0,3.0,2,41.971133,-87.780347
https://www.realtor.com/,7410887379,https://www.realtor.com/realestateandhomes-detail/2115-W-Potomac-Ave_Chicago_IL_60622_M74108-87379,1150000.0,"2115 W Potomac Ave, Chicago, IL 60622",SOLD,3000.0,3.0,2.5,41.904697,-87.680437
https://www.realtor.com/,7976186536,https://www.realtor.com/realestateandhomes-detail/6035-N-Ridge-Ave_Chicago_IL_60660_M79761-86536,575000.0,"6035 N Ridge Ave, Chicago, IL 60660",SOLD,2000.0,3.0,2.5,41.991475,-87.672861
https://www.realtor.com/,7936632667,https://www.realtor.com/realestateandhomes-detail/8942-S-Cornell-Ave_Chicago_IL_60617_M79366-32667,124950.0,"8942 S Cornell Ave, Chicago, IL 60617",SOLD,900.0,2.0,1.5,41.732122,-87.584243
https://www.realtor.com/,8001129344,https://www.realtor.com/realestateandhomes-detail/6630-S-Hoyne-Ave_Chicago_IL_60636_M80011-29344,249900.0,"6630 S Hoyne Ave, Chicago, IL 60636",SOLD,2500.0,5.0,3,41.77292,-87.676531
https://www.realtor.com/,8809284350,https://www.realtor.com/realestateandhomes-detail/4921-N-Central-Park-Ave_Chicago_IL_60625_M88092-84350,469900.0,"4921 N Central Park Ave, Chicago, IL 60625",SOLD,2100.0,5.0,2,41.97088,-87.71797
https://www.realtor.com/,8763932218,https://www.realtor.com/realestateandhomes-detail/5753-S-Merrimac-Ave_Chicago_IL_60638_M87639-32218,335000.0,"5753 S Merrimac Ave, Chicago, IL 60638",SOLD,1060.0,3.0,1.5,41.787217,-87.777608
https://www.realtor.com/,7009118178,https://www.realtor.com/realestateandhomes-detail/3756-W-85th-Pl_Chicago_IL_60652_M70091-18178,261000.0,"3756 W 85th Pl, Chicago, IL 60652",SOLD,2081.0,4.0,2.5,41.73795,-87.716473
https://www.realtor.com/,8589559982,https://www.realtor.com/realestateandhomes-detail/7540-N-Overhill-Ave_Chicago_IL_60631_M85895-59982,415000.0,"7540 N Overhill Ave, Chicago, IL 60631",SOLD,1200.0,3.0,1.5,42.018083,-87.819124
https://www.realtor.com/,7575106312,https://www.realtor.com/realestateandhomes-detail/10224-S-Union-Ave_Chicago_IL_60628_M75751-06312,195000.0,"10224 S Union Ave, Chicago, IL 60628",SOLD,1446.0,3.0,1,41.707927,-87.640781
https://www.realtor.com/,7382031464,https://www.realtor.com/realestateandhomes-detail/441-W-95th-Pl_Chicago_IL_60628_M73820-31464,114400.0,"441 W 95th Pl, Chicago, IL 60628",SOLD,1104.0,3.0,1,41.720392,-87.635581
https://www.realtor.com/,8783333253,https://www.realtor.com/realestateandhomes-detail/2612-W-106th-Pl_Chicago_IL_60655_M87833-33253,299900.0,"2612 W 106th Pl, Chicago, IL 60655",SOLD,1292.0,3.0,2,41.700209,-87.686929
https://www.realtor.com/,8039741415,https://www.realtor.com/realestateandhomes-detail/4036-N-Bernard-St_Chicago_IL_60618_M80397-41415,359900.0,"4036 N Bernard St, Chicago, IL 60618",SOLD,1872.0,3.0,2.5,41.954985,-87.714526
https://www.realtor.com/,7712953217,https://www.realtor.com/realestateandhomes-detail/7726-W-Balmoral-Ave_Chicago_IL_60656_M77129-53217,349000.0,"7726 W Balmoral Ave, Chicago, IL 60656",SOLD,1100.0,3.0,2,41.978086,-87.820443
https://www.realtor.com/,8695179703,https://www.realtor.com/realestateandhomes-detail/8800-S-Laflin-St_Chicago_IL_60620_M86951-79703,145000.0,"8800 S Laflin St, Chicago, IL 60620",SOLD,1294.0,3.0,1,41.733864,-87.660944
https://www.realtor.com/,8037735872,https://www.realtor.com/realestateandhomes-detail/5137-S-Dorchester-Ave_Chicago_IL_60615_M80377-35872,1550000.0,"5137 S Dorchester Ave, Chicago, IL 60615",SOLD,5100.0,5.0,4.5,41.801336,-87.59146
https://www.realtor.com/,7073718949,https://www.realtor.com/realestateandhomes-detail/11825-S-Wallace-St_Chicago_IL_60628_M70737-18949,89900.0,"11825 S Wallace St, Chicago, IL 60628",SOLD,900.0,3.0,1,41.678869,-87.636773
https://www.realtor.com/,8910727106,https://www.realtor.com/realestateandhomes-detail/2930-N-Mont-Clare-Ave_Chicago_IL_60634_M89107-27106,385000.0,"2930 N Mont Clare Ave, Chicago, IL 60634",SOLD,2879.0,4.0,3,41.93355,-87.804501
https://www.realtor.com/,7016354771,https://www.realtor.com/realestateandhomes-detail/1743-N-Maplewood-Ave_Chicago_IL_60647_M70163-54771,1349500.0,"1743 N Maplewood Ave, Chicago, IL 60647",SOLD,3500.0,5.0,3.5,41.913394,-87.690614
https://www.realtor.com/,8393225297,https://www.realtor.com/realestateandhomes-detail/4226-N-Greenview-Ave_Chicago_IL_60613_M83932-25297,1599000.0,"4226 N Greenview Ave, Chicago, IL 60613",SOLD,4500.0,5.0,3.5,41.958733,-87.668065
https://www.realtor.com/,7297656998,https://www.realtor.com/realestateandhomes-detail/4738-S-Champlain-Ave_Chicago_IL_60615_M72976-56998,575000.0,"4738 S Champlain Ave, Chicago, IL 60615",SOLD,3700.0,3.0,3.5+,41.808335,-87.610528
https://www.realtor.com/,7915809412,https://www.realtor.com/realestateandhomes-detail/3111-W-Jarlath-St_Chicago_IL_60645_M79158-09412,585000.0,"3111 W Jarlath St, Chicago, IL 60645",SOLD,1387.0,3.0,2,42.012549,-87.70733
https://www.realtor.com/,8185981014,https://www.realtor.com/realestateandhomes-detail/10129-S-May-St_Chicago_IL_60643_M81859-81014,223000.0,"10129 S May St, Chicago, IL 60643",SOLD,1172.0,3.0,2,41.709568,-87.651075
https://www.realtor.com/,8034532927,https://www.realtor.com/realestateandhomes-detail/1621-W-Huron-St_Chicago_IL_60622_M80345-32927,899000.0,"1621 W Huron St, Chicago, IL 60622",SOLD,2443.0,3.0,3.5,41.893981,-87.668099
https://www.realtor.com/,8090865733,https://www.realtor.com/realestateandhomes-detail/6522-S-Marshfield-Ave_Chicago_IL_60636_M80908-65733,249000.0,"6522 S Marshfield Ave, Chicago, IL 60636",SOLD,1471.0,4.0,2,41.775069,-87.665717
https://www.realtor.com/,7167923583,https://www.realtor.com/realestateandhomes-detail/5554-W-School-St_Chicago_IL_60641_M71679-23583,375000.0,"5554 W School St, Chicago, IL 60641",SOLD,1348.0,3.0,2,41.940667,-87.766282
https://www.realtor.com/,7944790943,https://www.realtor.com/realestateandhomes-detail/4106-N-Campbell-Ave_Chicago_IL_60618_M79447-90943,1195000.0,"4106 N Campbell Ave, Chicago, IL 60618",SOLD,3900.0,4.0,3.5,41.956159,-87.69131
https://www.realtor.com/,8459149298,https://www.realtor.com/realestateandhomes-detail/2222-S-Trumbull-Ave_Chicago_IL_60623_M84591-49298,349000.0,"2222 S Trumbull Ave, Chicago, IL 60623",SOLD,1571.0,3.0,2,41.850974,-87.711669
https://www.realtor.com/,7079346106,https://www.realtor.com/realestateandhomes-detail/11801-S-Union-Ave_Chicago_IL_60628_M70793-46106,114900.0,"11801 S Union Ave, Chicago, IL 60628",SOLD,1299.0,3.0,2,41.679567,-87.639207
https://www.realtor.com/,8789470058,https://www.realtor.com/realestateandhomes-detail/11413-S-Avenue-J_Chicago_IL_60617_M87894-70058,315000.0,"11413 S Avenue J, Chicago, IL 60617",SOLD,2107.0,3.0,2,41.687803,-87.533724
https://www.realtor.com/,8076366956,https://www.realtor.com/realestateandhomes-detail/10541-S-Millard-Ave_Chicago_IL_60655_M80763-66956,340000.0,"10541 S Millard Ave, Chicago, IL 60655",SOLD,1056.0,3.0,1,41.701136,-87.711827
https://www.realtor.com/,7671901524,https://www.realtor.com/realestateandhomes-detail/509-N-Laramie-Ave_Chicago_IL_60644_M76719-01524,195000.0,"509 N Laramie Ave, Chicago, IL 60644",SOLD,1916.0,4.0,2,41.889658,-87.755056
https://www.realtor.com/,8600144029,https://www.realtor.com/realestateandhomes-detail/4553-S-Leclaire-Ave_Chicago_IL_60638_M86001-44029,324999.0,"4553 S Leclaire Ave, Chicago, IL 60638",SOLD,1008.0,3.0,2,41.809653,-87.750198
https://www.realtor.com/,7920435124,https://www.realtor.com/realestateandhomes-detail/53-E-90th-St_Chicago_IL_60619_M79204-35124,385000.0,"53 E 90th St, Chicago, IL 60619",SOLD,2000.0,3.0,2.5,41.730619,-87.62192
https://www.realtor.com/,8993814445,https://www.realtor.com/realestateandhomes-detail/10134-S-Bell-Ave_Chicago_IL_60643_M89938-14445,740000.0,"10134 S Bell Ave, Chicago, IL 60643",SOLD,3300.0,5.0,3,41.708969,-87.67894
https://www.realtor.com/,7152774014,https://www.realtor.com/realestateandhomes-detail/3310-W-Beach-Ave_Chicago_IL_60651_M71527-74014,389000.0,"3310 W Beach Ave, Chicago, IL 60651",SOLD,2130.0,5.0,3,41.907605,-87.709903
https://www.realtor.com/,7627790908,https://www.realtor.com/realestateandhomes-detail/7711-S-Honore-St_Chicago_IL_60620_M76277-90908,100000.0,"7711 S Honore St, Chicago, IL 60620",SOLD,1800.0,3.0,2,41.753552,-87.669244
https://www.realtor.com/,8822652674,https://www.realtor.com/realestateandhomes-detail/2620-W-36th-Pl_Chicago_IL_60632_M88226-52674,279900.0,"2620 W 36th Pl, Chicago, IL 60632",SOLD,1060.0,3.0,2,41.827691,-87.690702
https://www.realtor.com/,9008855625,https://www.realtor.com/realestateandhomes-detail/2925-W-Roscoe-St_Chicago_IL_60618_M90088-55625,425000.0,"2925 W Roscoe St, Chicago, IL 60618",SOLD,1125.0,4.0,3,41.942507,-87.701348
https://www.realtor.com/,7530147322,https://www.realtor.com/realestateandhomes-detail/2815-N-Lotus-Ave_Chicago_IL_60641_M75301-47322,379000.0,"2815 N Lotus Ave, Chicago, IL 60641",SOLD,1306.0,3.0,2,41.931846,-87.762226
https://www.realtor.com/,8800756044,https://www.realtor.com/realestateandhomes-detail/4044-W-81st-St_Chicago_IL_60652_M88007-56044,229000.0,"4044 W 81st St, Chicago, IL 60652",SOLD,900.0,2.0,1,41.745979,-87.723596
https://www.realtor.com/,7341223331,https://www.realtor.com/realestateandhomes-detail/9432-S-Forest-Ave_Chicago_IL_60619_M73412-23331,129000.0,"9432 S Forest Ave, Chicago, IL 60619",SOLD,1400.0,3.0,1.5,41.722646,-87.616931
https://www.realtor.com/,7922453878,https://www.realtor.com/realestateandhomes-detail/2545-N-Marmora-Ave_Chicago_IL_60639_M79224-53878,330000.0,"2545 N Marmora Ave, Chicago, IL 60639",SOLD,1800.0,4.0,3,41.927014,-87.773044
https://www.realtor.com/,7324865508,https://www.realtor.com/realestateandhomes-detail/9704-S-Emerald-Ave_Chicago_IL_60628_M73248-65508,63800.0,"9704 S Emerald Ave, Chicago, IL 60628",SOLD,1056.0,2.0,1,41.717607,-87.642245
https://www.realtor.com/,7916516058,https://www.realtor.com/realestateandhomes-detail/7937-S-Saginaw-Ave_Chicago_IL_60617_M79165-16058,44900.0,"7937 S Saginaw Ave, Chicago, IL 60617",SOLD,924.0,2.0,1,41.750685,-87.559803
https://www.realtor.com/,7830309264,https://www.realtor.com/realestateandhomes-detail/2825-N-Cambridge-Ave_Chicago_IL_60657_M78303-09264,2950000.0,"2825 N Cambridge Ave, Chicago, IL 60657",SOLD,5000.0,5.0,4.5+,41.93362,-87.642369
https://www.realtor.com/,7580478845,https://www.realtor.com/realestateandhomes-detail/2141-W-Cortland-St_Chicago_IL_60647_M75804-78845,1200000.0,"2141 W Cortland St, Chicago, IL 60647",SOLD,2400.0,3.0,2.5,41.915932,-87.681708
https://www.realtor.com/,8993518243,https://www.realtor.com/realestateandhomes-detail/3114-S-Karlov-Ave_Chicago_IL_60623_M89935-18243,399900.0,"3114 S Karlov Ave, Chicago, IL 60623",SOLD,2012.0,3.0,3,41.836368,-87.72712
https://www.realtor.com/,8613641301,https://www.realtor.com/realestateandhomes-detail/5728-W-Wilson-Ave_Chicago_IL_60630_M86136-41301,485000.0,"5728 W Wilson Ave, Chicago, IL 60630",SOLD,1789.0,3.0,3,41.964345,-87.771038
https://www.realtor.com/,7760458367,https://www.realtor.com/realestateandhomes-detail/4159-N-Bell-Ave_Chicago_IL_60618_M77604-58367,1200000.0,"4159 N Bell Ave, Chicago, IL 60618",SOLD,3800.0,4.0,4.5,41.957599,-87.68458
https://www.realtor.com/,9363125614,https://www.realtor.com/realestateandhomes-detail/3600-W-115th-Pl_Chicago_IL_60655_M93631-25614,355000.0,"3600 W 115th Pl, Chicago, IL 60655",SOLD,1674.0,4.0,1.5,41.683467,-87.710427
https://www.realtor.com/,8073780262,https://www.realtor.com/realestateandhomes-detail/4044-W-21st-Pl_Chicago_IL_60623_M80737-80262,229000.0,"4044 W 21st Pl, Chicago, IL 60623",SOLD,1844.0,3.0,1.5,41.852821,-87.726602
https://www.realtor.com/,8376905290,https://www.realtor.com/realestateandhomes-detail/3820-N-Troy-St_Chicago_IL_60618_M83769-05290,1100000.0,"3820 N Troy St, Chicago, IL 60618",SOLD,3600.0,3.0,3.5,41.950965,-87.707064
https://www.realtor.com/,7166679286,https://www.realtor.com/realestateandhomes-detail/4103-N-Springfield-Ave_Chicago_IL_60618_M71666-79286,799999.0,"4103 N Springfield Ave, Chicago, IL 60618",SOLD,2909.0,6.0,3.5+,41.955675,-87.724872
https://www.realtor.com/,7563202213,https://www.realtor.com/realestateandhomes-detail/6730-W-Dakin-St_Chicago_IL_60634_M75632-02213,385000.0,"6730 W Dakin St, Chicago, IL 60634",SOLD,2338.0,4.0,2,41.951906,-87.795113
https://www.realtor.com/,8144630339,https://www.realtor.com/realestateandhomes-detail/7929-S-Ingleside-Ave_Chicago_IL_60619_M81446-30339,229900.0,"7929 S Ingleside Ave, Chicago, IL 60619",SOLD,1600.0,2.0,2,41.750377,-87.601171
https://www.realtor.com/,7255130595,https://www.realtor.com/realestateandhomes-detail/5843-N-Oconto-Ave_Chicago_IL_60631_M72551-30595,869900.0,"5843 N Oconto Ave, Chicago, IL 60631",SOLD,2855.0,3.0,3.5,41.987723,-87.807933
https://www.realtor.com/,7285016843,https://www.realtor.com/realestateandhomes-detail/10500-S-Church-St_Chicago_IL_60643_M72850-16843,244900.0,"10500 S Church St, Chicago, IL 60643",SOLD,1296.0,2.0,1,41.70295,-87.66012
https://www.realtor.com/,7400633650,https://www.realtor.com/realestateandhomes-detail/2744-N-Mozart-St_Chicago_IL_60647_M74006-33650,799000.0,"2744 N Mozart St, Chicago, IL 60647",SOLD,3000.0,4.0,2.5,41.931603,-87.699186
https://www.realtor.com/,7827830819,https://www.realtor.com/realestateandhomes-detail/5836-W-Wrightwood-Ave_Chicago_IL_60639_M78278-30819,349000.0,"5836 W Wrightwood Ave, Chicago, IL 60639",SOLD,1476.0,3.0,2,41.927794,-87.772509
https://www.realtor.com/,8593733767,https://www.realtor.com/realestateandhomes-detail/7738-W-Jerome-St_Chicago_IL_60631_M85937-33767,695000.0,"7738 W Jerome St, Chicago, IL 60631",SOLD,3231.0,4.0,3.5,42.01801,-87.820295
https://www.realtor.com/,7928872088,https://www.realtor.com/realestateandhomes-detail/6204-N-Maplewood-Ave_Chicago_IL_60659_M79288-72088,535000.0,"6204 N Maplewood Ave, Chicago, IL 60659",SOLD,1739.0,3.0,2,41.99427,-87.693787
https://www.realtor.com/,7453593445,https://www.realtor.com/realestateandhomes-detail/6327-S-Laflin-St_Chicago_IL_60636_M74535-93445,89900.0,"6327 S Laflin St, Chicago, IL 60636",SOLD,1197.0,3.0,3,41.778659,-87.661416
https://www.realtor.com/,8749090896,https://www.realtor.com/realestateandhomes-detail/9372-S-Vanderpoel-Ave_Chicago_IL_60643_M87490-90896,115000.0,"9372 S Vanderpoel Ave, Chicago, IL 60643",SOLD,2352.0,7.0,2.5,41.723225,-87.666647
https://www.realtor.com/,8359253125,https://www.realtor.com/realestateandhomes-detail/11117-S-Trumbull-Ave_Chicago_IL_60655_M83592-53125,219900.0,"11117 S Trumbull Ave, Chicago, IL 60655",SOLD,720.0,2.0,1,41.690929,-87.706545
https://www.realtor.com/,7376564743,https://www.realtor.com/realestateandhomes-detail/10137-S-Winston-Ave_Chicago_IL_60643_M73765-64743,129900.0,"10137 S Winston Ave, Chicago, IL 60643",SOLD,860.0,4.0,2,41.710349,-87.655496
https://www.realtor.com/,7337561822,https://www.realtor.com/realestateandhomes-detail/8242-S-Morgan-St_Chicago_IL_60620_M73375-61822,185000.0,"8242 S Morgan St, Chicago, IL 60620",SOLD,1072.0,4.0,2,41.743805,-87.649049
https://www.realtor.com/,7384281941,https://www.realtor.com/realestateandhomes-detail/8043-S-Coles-Ave_Chicago_IL_60617_M73842-81941,110000.0,"8043 S Coles Ave, Chicago, IL 60617",SOLD,660.0,3.0,1.5,41.748856,-87.548855
https://www.realtor.com/,7340727684,https://www.realtor.com/realestateandhomes-detail/8240-W-Addison-St_Chicago_IL_60634_M73407-27684,374000.0,"8240 W Addison St, Chicago, IL 60634",SOLD,1140.0,3.0,2.5,41.945154,-87.833207
https://www.realtor.com/,7418884516,https://www.realtor.com/realestateandhomes-detail/7728-W-Talcott-Ave_Chicago_IL_60631_M74188-84516,464900.0,"7728 W Talcott Ave, Chicago, IL 60631",SOLD,1940.0,3.0,2,41.992551,-87.819948
https://www.realtor.com/,8522114923,https://www.realtor.com/realestateandhomes-detail/3318-N-Harding-Ave_Chicago_IL_60618_M85221-14923,1149900.0,"3318 N Harding Ave, Chicago, IL 60618",SOLD,4000.0,5.0,3.5,41.941537,-87.726385
https://www.realtor.com/,8137596706,https://www.realtor.com/realestateandhomes-detail/2220-N-Talman-Ave_Chicago_IL_60647_M81375-96706,1199999.0,"2220 N Talman Ave, Chicago, IL 60647",SOLD,3700.0,4.0,3.5,41.922354,-87.694057
https://www.realtor.com/,7911532572,https://www.realtor.com/realestateandhomes-detail/4834-S-Knox-Ave_Chicago_IL_60632_M79115-32572,349000.0,"4834 S Knox Ave, Chicago, IL 60632",SOLD,1312.0,3.0,2,41.804803,-87.739762
https://www.realtor.com/,8081052899,https://www.realtor.com/realestateandhomes-detail/2252-W-Berwyn-Ave_Chicago_IL_60625_M80810-52899,1300000.0,"2252 W Berwyn Ave, Chicago, IL 60625",SOLD,4100.0,5.0,3.5,41.978011,-87.686446
https://www.realtor.com/,8916479391,https://www.realtor.com/realestateandhomes-detail/9747-S-Hamilton-Ave_Chicago_IL_60643_M89164-79391,539900.0,"9747 S Hamilton Ave, Chicago, IL 60643",SOLD,2601.0,4.0,2,41.716007,-87.675514
https://www.realtor.com/,8874496601,https://www.realtor.com/realestateandhomes-detail/1639-W-Rosehill-Dr_Chicago_IL_60660_M88744-96601,1750000.0,"1639 W Rosehill Dr, Chicago, IL 60660",SOLD,4800.0,5.0,5,41.986492,-87.671168
https://www.realtor.com/,8908703404,https://www.realtor.com/realestateandhomes-detail/9519-S-Leavitt-St_Chicago_IL_60643_M89087-03404,389000.0,"9519 S Leavitt St, Chicago, IL 60643",SOLD,1820.0,3.0,2,41.720346,-87.676854
https://www.realtor.com/,7933775265,https://www.realtor.com/realestateandhomes-detail/17-E-Scott-St_Chicago_IL_60610_M79337-75265,1850000.0,"17 E Scott St, Chicago, IL 60610",SOLD,3862.0,4.0,4.5+,41.904598,-87.627931
https://www.realtor.com/,8987106545,https://www.realtor.com/realestateandhomes-detail/3212-S-Stewart-Ave_Chicago_IL_60616_M89871-06545,659000.0,"3212 S Stewart Ave, Chicago, IL 60616",SOLD,3000.0,3.0,3.5,41.835886,-87.636174
https://www.realtor.com/,8558549643,https://www.realtor.com/realestateandhomes-detail/3143-N-Kolmar-Ave_Chicago_IL_60641_M85585-49643,359999.0,"3143 N Kolmar Ave, Chicago, IL 60641",SOLD,2104.0,3.0,2,41.938376,-87.740355
https://www.realtor.com/,8202332019,https://www.realtor.com/realestateandhomes-detail/1444-N-Waller-Ave_Chicago_IL_60651_M82023-32019,367000.0,"1444 N Waller Ave, Chicago, IL 60651",SOLD,2057.0,3.0,2.5,41.907032,-87.768603
https://www.realtor.com/,7068045780,https://www.realtor.com/realestateandhomes-detail/9119-S-May-St_Chicago_IL_60620_M70680-45780,329900.0,"9119 S May St, Chicago, IL 60620",SOLD,1571.0,4.0,2.5,41.728038,-87.651537
https://www.realtor.com/,7336630876,https://www.realtor.com/realestateandhomes-detail/1439-N-Springfield-Ave_Chicago_IL_60651_M73366-30876,312500.0,"1439 N Springfield Ave, Chicago, IL 60651",SOLD,2928.0,3.0,3,41.907455,-87.723664
https://www.realtor.com/,7952524405,https://www.realtor.com/realestateandhomes-detail/11347-S-Church-St_Chicago_IL_60643_M79525-24405,265000.0,"11347 S Church St, Chicago, IL 60643",SOLD,1538.0,3.0,3,41.687392,-87.667283
https://www.realtor.com/,8104635268,https://www.realtor.com/realestateandhomes-detail/4717-S-Maplewood-Ave_Chicago_IL_60632_M81046-35268,549000.0,"4717 S Maplewood Ave, Chicago, IL 60632",SOLD,3200.0,5.0,3.5,41.807869,-87.687737
https://www.realtor.com/,7419538855,https://www.realtor.com/realestateandhomes-detail/5514-W-Dakin-St_Chicago_IL_60641_M74195-38855,494900.0,"5514 W Dakin St, Chicago, IL 60641",SOLD,2021.0,2.0,2,41.952517,-87.765184
https://www.realtor.com/,7725550051,https://www.realtor.com/realestateandhomes-detail/5530-S-Shore-Dr-Apt-3A_Chicago_IL_60637_M77255-50051,120000.0,"5530 S Shore Dr Apt 3A, Chicago, IL 60637",SOLD,1100.0,2.0,1,41.794331,-87.581191
https://www.realtor.com/,8750279063,https://www.realtor.com/realestateandhomes-detail/5320-W-Warwick-Ave_Chicago_IL_60641_M87502-79063,524900.0,"5320 W Warwick Ave, Chicago, IL 60641",SOLD,2600.0,4.0,3,41.948973,-87.760384
https://www.realtor.com/,7585498619,https://www.realtor.com/realestateandhomes-detail/6048-W-Wellington-Ave_Chicago_IL_60634_M75854-98619,409000.0,"6048 W Wellington Ave, Chicago, IL 60634",SOLD,1878.0,4.0,3,41.935029,-87.778005
https://www.realtor.com/,8813005167,https://www.realtor.com/realestateandhomes-detail/8506-S-Vernon-Ave_Chicago_IL_60619_M88130-05167,259900.0,"8506 S Vernon Ave, Chicago, IL 60619",SOLD,2600.0,4.0,2.5,41.739874,-87.61345
https://www.realtor.com/,7253882111,https://www.realtor.com/realestateandhomes-detail/3829-W-77th-St_Chicago_IL_60652_M72538-82111,240000.0,"3829 W 77th St, Chicago, IL 60652",SOLD,1900.0,4.0,2,41.752616,-87.719501
https://www.realtor.com/,7932215170,https://www.realtor.com/realestateandhomes-detail/5030-S-Keating-Ave_Chicago_IL_60632_M79322-15170,315000.0,"5030 S Keating Ave, Chicago, IL 60632",SOLD,1038.0,3.0,2,41.80121,-87.742112
https://www.realtor.com/,8053226946,https://www.realtor.com/realestateandhomes-detail/11312-S-Union-Ave_Chicago_IL_60628_M80532-26946,115000.0,"11312 S Union Ave, Chicago, IL 60628",SOLD,1400.0,3.0,1.5,41.688311,-87.640179
https://www.realtor.com/,9947325309,https://www.realtor.com/realestateandhomes-detail/3264-W-Walnut-St_Chicago_IL_60624_M99473-25309,390000.0,"3264 W Walnut St, Chicago, IL 60624",SOLD,1718.0,3.0,2.5,41.885632,-87.708763
https://www.realtor.com/,7462234253,https://www.realtor.com/realestateandhomes-detail/5209-W-Eddy-St_Chicago_IL_60641_M74622-34253,449900.0,"5209 W Eddy St, Chicago, IL 60641",SOLD,1518.0,3.0,2,41.944819,-87.757357
https://www.realtor.com/,7210982010,https://www.realtor.com/realestateandhomes-detail/10833-S-Green-St_Chicago_IL_60643_M72109-82010,199000.0,"10833 S Green St, Chicago, IL 60643",SOLD,1052.0,3.0,2,41.696784,-87.643386
https://www.realtor.com/,8936330766,https://www.realtor.com/realestateandhomes-detail/7642-S-Merrill-Ave_Chicago_IL_60649_M89363-30766,89950.0,"7642 S Merrill Ave, Chicago, IL 60649",SOLD,1870.0,3.0,1.5,41.755823,-87.572765
https://www.realtor.com/,8991215459,https://www.realtor.com/realestateandhomes-detail/6100-N-Keating-Ave_Chicago_IL_60646_M89912-15459,524500.0,"6100 N Keating Ave, Chicago, IL 60646",SOLD,1181.0,3.0,2,41.991545,-87.747464
https://www.realtor.com/,7715881299,https://www.realtor.com/realestateandhomes-detail/7043-S-Damen-Ave_Chicago_IL_60636_M77158-81299,245000.0,"7043 S Damen Ave, Chicago, IL 60636",SOLD,1069.0,2.0,1.5,41.765342,-87.673201
https://www.realtor.com/,8581389080,https://www.realtor.com/realestateandhomes-detail/1217-W-109th-St_Chicago_IL_60643_M85813-89080,215000.0,"1217 W 109th St, Chicago, IL 60643",SOLD,1588.0,3.0,2,41.69561,-87.65293
https://www.realtor.com/,8147368423,https://www.realtor.com/realestateandhomes-detail/10458-S-Springfield-Ave_Chicago_IL_60655_M81473-68423,309000.0,"10458 S Springfield Ave, Chicago, IL 60655",SOLD,1536.0,3.0,1.5,41.702405,-87.718712
https://www.realtor.com/,7849840990,https://www.realtor.com/realestateandhomes-detail/4825-S-Woodlawn-Ave_Chicago_IL_60615_M78498-40990,4000000.0,"4825 S Woodlawn Ave, Chicago, IL 60615",SOLD,10125.0,6.0,4.5+,41.807079,-87.596215
https://www.realtor.com/,7209836396,https://www.realtor.com/realestateandhomes-detail/2532-W-Thomas-St_Chicago_IL_60622_M72098-36396,439000.0,"2532 W Thomas St, Chicago, IL 60622",SOLD,2500.0,4.0,2.5,41.901416,-87.69077
https://www.realtor.com/,7784633050,https://www.realtor.com/realestateandhomes-detail/1649-W-Waveland-Ave_Chicago_IL_60613_M77846-33050,950000.0,"1649 W Waveland Ave, Chicago, IL 60613",SOLD,2222.0,3.0,2.5,41.948631,-87.670804
https://www.realtor.com/,7788403941,https://www.realtor.com/realestateandhomes-detail/631-W-Schubert-Ave_Chicago_IL_60614_M77884-03941,2895000.0,"631 W Schubert Ave, Chicago, IL 60614",SOLD,5900.0,6.0,5.5,41.931373,-87.64566
https://www.realtor.com/,8250172746,https://www.realtor.com/realestateandhomes-detail/6948-N-Medford-Ave_Chicago_IL_60646_M82501-72746,640000.0,"6948 N Medford Ave, Chicago, IL 60646",SOLD,2075.0,3.0,1.5,42.007171,-87.783435
https://www.realtor.com/,8821306545,https://www.realtor.com/realestateandhomes-detail/901-W-129th-Pl_Chicago_IL_60643_M88213-06545,649000.0,"901 W 129th Pl, Chicago, IL 60643",SOLD,6000.0,5.0,4.5,41.658064,-87.643766
https://www.realtor.com/,8144342361,https://www.realtor.com/realestateandhomes-detail/4411-S-Berkeley-Ave_Chicago_IL_60653_M81443-42361,648000.0,"4411 S Berkeley Ave, Chicago, IL 60653",SOLD,3000.0,4.0,3.5+,41.814687,-87.600295
https://www.realtor.com/,7824082000,https://www.realtor.com/realestateandhomes-detail/7824-S-Drexel-Ave_Chicago_IL_60619_M78240-82000,299900.0,"7824 S Drexel Ave, Chicago, IL 60619",SOLD,2949.0,4.0,3,41.752319,-87.603131
https://www.realtor.com/,8424555835,https://www.realtor.com/realestateandhomes-detail/3916-N-Christiana-Ave_Chicago_IL_60618_M84245-55835,595000.0,"3916 N Christiana Ave, Chicago, IL 60618",SOLD,2476.0,3.0,2,41.952644,-87.711998
https://www.realtor.com/,7167084136,https://www.realtor.com/realestateandhomes-detail/4908-N-Hermitage-Ave_Chicago_IL_60640_M71670-84136,1500000.0,"4908 N Hermitage Ave, Chicago, IL 60640",SOLD,4600.0,4.0,4.5+,41.972135,-87.673142
https://www.realtor.com/,7436978611,https://www.realtor.com/realestateandhomes-detail/4537-S-Kilpatrick-Ave_Chicago_IL_60632_M74369-78611,680000.0,"4537 S Kilpatrick Ave, Chicago, IL 60632",SOLD,4200.0,4.0,3.5,41.810232,-87.740428
https://www.realtor.com/,8474280494,https://www.realtor.com/realestateandhomes-detail/635-W-43rd-Pl_Chicago_IL_60609_M84742-80494,389900.0,"635 W 43rd Pl, Chicago, IL 60609",SOLD,1380.0,3.0,2,41.815062,-87.642293
https://www.realtor.com/,8638196040,https://www.realtor.com/realestateandhomes-detail/8938-S-Bishop-St_Chicago_IL_60620_M86381-96040,327900.0,"8938 S Bishop St, Chicago, IL 60620",SOLD,2600.0,4.0,3,41.731001,-87.659625
https://www.realtor.com/,7034678762,https://www.realtor.com/realestateandhomes-detail/9914-S-Calhoun-Ave_Chicago_IL_60617_M70346-78762,190000.0,"9914 S Calhoun Ave, Chicago, IL 60617",SOLD,1068.0,3.0,1.5,41.714855,-87.562532
https://www.realtor.com/,8088363841,https://www.realtor.com/realestateandhomes-detail/450-E-89th-Pl_Chicago_IL_60619_M80883-63841,339000.0,"450 E 89th Pl, Chicago, IL 60619",SOLD,3012.0,5.0,3,41.73223,-87.612412
https://www.realtor.com/,7407106552,https://www.realtor.com/realestateandhomes-detail/5440-W-Pensacola-Ave_Chicago_IL_60641_M74071-06552,875000.0,"5440 W Pensacola Ave, Chicago, IL 60641",SOLD,3300.0,5.0,3.5,41.959872,-87.763912
https://www.realtor.com/,7908937957,https://www.realtor.com/realestateandhomes-detail/4343-N-Drake-Ave_Chicago_IL_60618_M79089-37957,738500.0,"4343 N Drake Ave, Chicago, IL 60618",SOLD,2382.0,3.0,4,41.960599,-87.716444
https://www.realtor.com/,8054082506,https://www.realtor.com/realestateandhomes-detail/5427-N-Oconto-Ave_Chicago_IL_60656_M80540-82506,420000.0,"5427 N Oconto Ave, Chicago, IL 60656",SOLD,1000.0,2.0,2,41.979071,-87.808601
https://www.realtor.com/,8346768515,https://www.realtor.com/realestateandhomes-detail/6024-W-Grace-St_Chicago_IL_60634_M83467-68515,339000.0,"6024 W Grace St, Chicago, IL 60634",SOLD,1982.0,4.0,1.5,41.94966,-87.777709
https://www.realtor.com/,8262810089,https://www.realtor.com/realestateandhomes-detail/9220-S-Laflin-St_Chicago_IL_60620_M82628-10089,239000.0,"9220 S Laflin St, Chicago, IL 60620",SOLD,1486.0,2.0,2,41.726058,-87.660711
https://www.realtor.com/,8023169443,https://www.realtor.com/realestateandhomes-detail/5029-N-Neva-Ave_Chicago_IL_60656_M80231-69443,409000.0,"5029 N Neva Ave, Chicago, IL 60656",SOLD,2150.0,2.0,2,41.972794,-87.805592
https://www.realtor.com/,7621604762,https://www.realtor.com/realestateandhomes-detail/7719-S-Damen-Ave_Chicago_IL_60620_M76216-04762,225900.0,"7719 S Damen Ave, Chicago, IL 60620",SOLD,1382.0,3.0,1.5,41.753259,-87.672877
https://www.realtor.com/,8906778873,https://www.realtor.com/realestateandhomes-detail/7729-S-Euclid-Ave_Chicago_IL_60649_M89067-78873,379950.0,"7729 S Euclid Ave, Chicago, IL 60649",SOLD,3000.0,3.0,3,41.754406,-87.576918
https://www.realtor.com/,7687131922,https://www.realtor.com/realestateandhomes-detail/2051-W-Marquette-Rd_Chicago_IL_60636_M76871-31922,75000.0,"2051 W Marquette Rd, Chicago, IL 60636",SOLD,2559.0,4.0,2.5,41.77179,-87.67571
https://www.realtor.com/,7553328325,https://www.realtor.com/realestateandhomes-detail/1841-W-Greenleaf-Ave_Chicago_IL_60626_M75533-28325,599999.0,"1841 W Greenleaf Ave, Chicago, IL 60626",SOLD,1790.0,3.0,2,42.009798,-87.677482
https://www.realtor.com/,9837912208,https://www.realtor.com/realestateandhomes-detail/3629-3631-S-Calumet-Ave_Chicago_IL_60653_M98379-12208,525000.0,"3629-3631 S Calumet Ave, Chicago, IL 60653",SOLD,2700.0,4.0,3.5,41.828419,-87.618172
